index,name,point_lon,point_lat
1,Reiver House,-2.957087905,54.89508354
2,Lloyds Pharmacy,-1.556016545,52.41333182
3,Wilson Hospital,-0.163246205,51.39728813
4,Elland Pharmacy,-1.836387697,53.68635065
5,Pimhole Pharmacy,-2.282893614,53.59301832
6,Health Visitors Office,-1.390811368,50.92596252
7,Community Nurses Office,-2.311574024,51.23731486
8,Drayton Community Pharmacy,-1.045931525,50.84647065
9,The Beauchamp Centre,-4.11422608,50.37798058
10,Ealing Urgent Care Centre,-0.345495479,51.50760566
11,District Nurses Office,-1.432464308,50.92423892
12,District Nurses Office,-2.84291101,53.42096394
13,Warrington Road Children's Centre,-2.713571545,53.3702924
14,Health Visitors Office,-2.455969846,50.61336395
15,Synergise Pharmacy,-1.315990363,54.56133824
16,Verwood Pharmacy,-1.868776581,50.87022121
17,Weldricks Pharmacy,-1.137180764,53.52040016
18,Badham Pharmacy Ltd,-2.082312484,51.90600427
19,Reading Community LD Team,-1.028483415,51.45153417
20,Tesco in-store Pharmacy,-2.119139472,52.80202603
21,Archway Pharmacy,-1.373532833,53.43016369
22,Seaton & District Community Hospital,-3.071506065,50.7118034
23,Bridge Lane Health Centre,-0.166330828,51.47325184
24,Radcliffe Day and Night Pharmacy,-1.039833952,52.94718587
25,Sowerby Bridge Pharmacy,-1.911355578,53.70718297
26,The Cheshire and Merseyside Treatment Centre,-2.695393159,53.32184207
27,Fleetwood Hospital,-3.009078615,53.92675574
28,Leek Pharmacy,-2.007593722,53.11460982
29,Rosebank Pharmacy,-2.791758792,53.99341889
30,All Day Health Centre,-3.096821017,53.36961989
31,Rosebird Centre Pharmacy,-1.698512141,52.17929647
32,Avicenna Pharmacy,-1.908934106,50.74888801
33,Eastham Clinic,-2.966270891,53.31189194
34,Wychwood Pharmacy,-1.596796292,51.86317609
35,Day Lewis Pharmacy,-0.032413198,53.5598175
36,Coleman Health Centre,-1.445502201,52.89488967
37,Anglia Community Eye Service,0.141950598,52.64834219
38,Medicure Pharmacy,-1.178244585,52.61013675
39,The Romford Road Centre,0.006913206,51.54251778
40,District Nurses and Health Visitors,0.158765825,51.46125056
41,Bluedew Pharmacy,-0.036146245,51.58746294
42,Lloyds Pharmacy,-1.959081011,52.35164737
43,Yapton Pharmacy,-0.613245084,50.82208624
44,Fountain Pharmacy,-0.384663469,51.50225268
45,District Nurses,-1.530582423,53.58585415
46,Hillside Centre,-2.723711397,52.04260194
47,Community Nurses Office,-0.173252047,51.52093915
48,Queens Medical Centre,-4.057195962,51.0801607
49,Tanner Street Pharmacy,0.748915053,52.41279342
50,Well Pharmacy,-1.968679381,52.63020542
51,Jhoots Pharmacy,-0.360902093,53.73557016
52,Boots,0.406701078,52.74736436
53,Community Nurses Office,-0.477937912,53.26356124
54,Community Nurses Office,0.016887951,52.80505766
55,Medipharma Chemist,-1.93955545,52.43862894
56,Community Health Services,-0.200031124,51.41930626
57,Oxenhope Pharmacy,-1.951335172,53.81168247
58,Peak Pharmacy,-1.412948329,53.16814486
59,St Bede's Unit,-1.582679425,54.93691532
60,Pitman Pharmacy,-1.965784683,52.4185017
61,Keir Hardie Pharmacy,-3.389572718,51.74637218
62,Continence Office,-0.166595228,51.17295239
63,Gate House Pharmacy,-1.508911184,53.58667504
64,Westerhope Medical Group,-1.691706286,54.9789996
65,Community Nurses Office,-1.609010725,54.99637512
66,The Grove Medical Group,-1.619084655,55.00217621
67,The Park Medical Group,-1.668444246,55.0128704
68,The Arthur Medical Centre,-1.424341591,53.00252032
69,Rowlands Pharmacy,-2.979535878,53.42453254
70,Rowlands Pharmacy,-2.884023401,53.48239983
71,Healthpoint Pharmacy,-2.315323699,52.37586784
72,Boots,-0.425163693,51.5712159
73,Late Night Yew Tree Pharmacy,-1.765788034,52.42090924
74,Adams Pharmacy,-2.078218198,53.49283792
75,Day - Night Pharmacy,-2.209761312,53.06240522
76,The Riverside Pharmacy,-0.406506879,52.99778445
77,Ealing Stop Smoking Service,-0.322501718,51.51258452
78,Sunfield Medical Centre,-1.667382402,53.80668388
79,Hado Pharmacy,1.109723681,52.37826093
80,Culm Valley Integrated Centre for Health,-3.392707482,50.86418085
81,Maltby Pharmacy,-1.204009673,53.42230521
82,Harold Wood Polyclinic,0.225697654,51.5931826
83,Caergwrle Clinic,-3.040564885,53.11012132
84,Boots,1.180691278,52.65383814
85,Peterlee Community Hospital,-1.333038797,54.75406682
86,High Green Pharmacy,-1.491503309,53.47500162
87,Harrogate Pharmacy,-1.53589816,53.99466063
88,Delmergate Pharmacy,0.22618013,51.46159131
89,One Hatfield Hospital,-0.236475733,51.77115558
90,Community Nurses Office,-2.658728223,53.67834849
91,Howitts Pharmacy,-1.139528713,52.60379365
92,Jade Pharmacy,-0.334165216,51.75659919
93,Kamsons Pharmacy,-0.106303437,50.81852073
94,Lloyds Pharmacy,-2.037103739,53.11182392
95,Churchdown Mental Health Centre,0.0046813,51.42634305
96,Nishkam Pharmacy,-1.925519662,52.50117322
97,Tesco in-store Pharmacy,-0.686826644,52.48501022
98,The Bridges Learning Centre,-2.710496732,53.37518268
99,CAMHS,-1.214105446,51.73249801
100,Lansdales Pharmacy,-0.761569484,51.63304679
101,Fleetwood Health Centre Pharmacy,-3.010415734,53.9209561
102,Whitemoor Medical Centre,-1.454757254,53.03148044
103,Wellbrook Medical Centre,-1.629887334,52.87141639
104,Community Nurses,-1.403752619,53.04284094
105,Clay Cross Medical Centre,-1.412199755,53.16808184
106,Ripley Medical Centre,-1.40644231,53.04682763
107,London Road Community Hospital,-1.468648029,52.91431636
108,St Martins Pharmacy,-3.008549586,52.92449543
109,Lemington Walk-in Centre,-1.712424456,54.97673185
110,Schoen Clinic London,-0.150005164,51.51658214
111,Juniper Lodge,-2.45035646,50.71660528
112,Fawdon Park Pharmacy,-1.645197852,55.01392817
113,Riaz Pharmacy,-2.480522532,53.75323918
114,Bellevue Pharmacy,-1.899616234,52.46490663
115,Community Nurses Office,-1.579736792,54.97814332
116,Benfield Park Medical Group,-1.56176609,54.98906296
117,Biddlestone Health Group,-1.577382775,54.98955671
118,Gillingate Pharmacy,-2.748127407,54.32318943
119,Community Nurses Office,1.237277004,52.79478701
120,Sydenham Childrens Centre,-1.512569393,52.27869369
121,Kingsway Childrens Centre,-1.538451849,52.27837418
122,Lillington Childrens Centre,-1.517228012,52.30158871
123,Whitnash Childrens Centre,-1.524601136,52.27476898
124,The Ridings Centre,-1.069772362,54.61773546
125,Peterlee Pharmacy,-1.331837958,54.76283125
126,Paydens Ltd,0.88106283,51.14822001
127,Rigbys Pharmacy,-2.442679292,53.56704253
128,Life Pharmacy,-0.167400633,51.49721563
129,Rowlands Pharmacy,-2.894093132,53.35377361
130,Maple House,-2.298563864,53.5912994
131,Superdrug Pharmacy,-0.098294665,51.51441523
132,Aspire Pharmacy,-2.883681629,53.56768875
133,Camberley Pharmacy,-0.741596807,51.33597349
134,Community Nurses Office,0.456508917,51.7289348
135,Ellesmere Pharmacy,-2.900672184,53.2781482
136,Mental Health Services,-0.225229004,51.49056037
137,Early Intervention Team - Newham,0.044102367,51.53952856
138,Kirkby Community Mental Health Team,-2.879566662,53.48287497
139,Rowlands Pharmacy,-3.217587699,53.2704317
140,Cambridge Road Pharmacy,-2.965049451,53.66177547
141,Total Medcare Pharmacy,0.088350965,51.64610374
142,The Hyde Pharmacy,-0.252040893,51.58754087
143,Rowlands Pharmacy,-1.842472754,50.72954519
144,Armley Moor Pharmacy,-1.593482543,53.7963655
145,Community Nurses Office,-2.711712104,52.05390185
146,Florence Nightingale Child Development Centre,0.132669252,51.76759722
147,Hammersmith Pharmacy,-0.22247893,51.48830657
148,Heysham Primary Care Centre,-2.894059149,54.04171439
149,Maidstone Hospital,0.485489734,51.27448961
150,Park View Medical Centre,-2.935446269,53.4219737
151,Community Health Services,-0.088361688,53.56267569
152,Well Pharmacy,-0.939943894,52.24469824
153,Queen Street Resource Centre,-0.07965124,53.56666066
154,Pilgrim Primary Care Centre,-0.205899382,53.6179216
155,Lloyds Pharmacy,-2.617624746,51.51030265
156,Simpill Ltd,-1.605634683,55.09469708
157,St Lukes Pharmacy,-1.302679493,50.92588064
158,Plymbridge House,-4.123373151,50.41243034
159,Morrab Pharmacy,-5.539016454,50.11707338
160,Drugsmith Pharmacy,-0.271012986,51.40201217
161,Barrow Pharmacy,0.585212264,52.23936014
162,Boots,-3.403504727,53.3367275
163,Grangetown Pharmacy,-1.14634868,54.57599898
164,CAMHS,0.211010874,51.44548323
165,DHC Pain Clinic,-0.333443748,51.22598764
166,Walsall CAMHS,-1.98963315,52.62108448
167,St Bernard's Hospital Site,-0.351075414,51.50671576
168,Community Nurses Office,-2.744191228,52.2261574
169,South Locality Team - City & Hackney,-0.064482339,51.53176635
170,Community Nurses Office,-1.712468081,53.82379478
171,Macmillan Nurses Office,-0.014751325,52.99088052
172,Murrays Healthcare,-2.053111413,52.54062313
173,Dialhouse Pharmacy,-2.134359087,53.39617053
174,Childrens & Family Services,-1.844682076,50.72726491
175,Clay Lane Pharmacy,-1.482731253,52.41221239
176,Attwood Green Pharmacy,-1.908469984,52.4726236
177,Community Health Services,-3.000669432,53.74873084
178,Mangal Pharmacy,0.049422863,51.45472395
179,Eddie Hawker Wing,-1.973116857,50.72198734
180,Care Co-ordination Centre,1.162901508,52.03727936
181,Seamoor Unit,-4.050435538,51.09216599
182,Rowlands Pharmacy,-1.79753234,51.07179959
183,Well Pharmacy,-3.566983107,50.43329452
184,Farah Chemist Ltd,-1.673784393,54.9733365
185,Well Pharmacy,-1.334263899,50.90859879
186,Rackheath Pharmacy,1.381094479,52.66092075
187,Courts Pharmacy,1.404853357,51.33660846
188,Wellesbourne Pharmacy,-1.590020069,52.19525853
189,Newton Pharmacy,-2.063825243,53.46374194
190,Monsell Pharmacy,-1.145661944,52.59061369
191,Staplegrove Pharmacy,-3.129393139,51.02575286
192,Lloyds Pharmacy,-1.152609429,51.89795862
193,Alpha Chemist,0.067136837,51.49044711
194,Walmley Pharmacy,-1.800821199,52.54010845
195,Kesgrave Pharmacy,1.228998792,52.05815909
196,Periville Chemist,-0.066656519,53.5585169
197,Chemilab Pharmacy,-0.40216134,51.69091301
198,Crown Pharmacy,-0.395496288,51.79912967
199,Station Pharmacy New Cross,-0.031916228,51.4761535
200,Margate Pharmacy,1.406236824,51.38259202
201,Woolwich Late Night Pharmacy,0.068781667,51.49034616
202,Buckley Pharmacy,-0.298383485,51.30983444
203,Haddens Pharmacy,-2.987307257,53.44914033
204,J Andersen Pharmacy,0.601152885,50.86882917
205,Ladywell Pharmacy,-0.024910085,51.45698913
206,The Pharmacy,0.719443356,52.07941812
207,New Inn Pharmacy,-3.009483888,51.68987486
208,Cooper & Kime (Cleveland) Ltd,-1.173716393,54.57823612
209,Worksop Pharmacy,-1.124541622,53.30199899
210,Brian H Donlon Pharmacy,-2.656561236,53.46831966
211,Barrow Pharmacy,-0.380658849,53.67562573
212,Ponda's Chemist,-2.528585512,53.19150532
213,Atlas Pharmacy,-2.724275235,53.45516077
214,Vincent Smith Pharmacy,-2.356977989,53.49186245
215,Z A Akram Ltd,-1.796859534,53.6383401
216,Drake Pharmacy,-2.982974708,53.45635817
217,Strachans Chemist,-2.289937937,53.60196187
218,Ware Cross Pharmacy,-0.013625974,51.7765274
219,Larvic Pharmacy,-1.991677157,52.57473604
220,Medipharmacy,-0.230690614,51.41012501
221,Centrechem,-1.603407534,54.87331894
222,Hermans Pharmacy,-0.478599149,51.45392571
223,Community Paediatrics,-1.68535943,52.77622308
224,Congleton Pharmacy,-2.216792006,53.16376167
225,Rohpharm Pharmacy,0.01878118,51.53125317
226,Canna Pharmacy,-3.198071066,51.4821745
227,Girlington Pharmacy,-1.788212283,53.80305705
228,G Gouldings Ltd,-1.793090193,52.48840766
229,Hanover Medical Centre,-1.483628586,53.37518516
230,Cohens Chemist,-2.212058316,53.53326765
231,Peak Pharmacy,-1.370783752,53.25609016
232,Bowness Pharmacy,-2.224427912,53.5537466
233,Marlow Bottom Pharmacy,-0.7743108,51.58702574
234,Direct Pharmacy,-0.586109083,51.23794911
235,Stevanage Pharmacy,-0.160541999,51.91612755
236,S & S Chemists,-0.261020438,51.54100421
237,Parmay Pharmacy,-0.204100219,51.48791864
238,John Low Ltd,-1.842614698,54.86812786
239,Island Pharmacy,0.53807579,51.40677621
240,Evergreen Pharmacy,-1.87079068,52.42651832
241,J & L C Clark Chemists,-1.524189585,54.52242457
242,Community Nurses Office,-1.627109168,55.02696701
243,Lloyds Pharmacy,-1.263874636,53.27552366
244,Abbeydale Pharmacy,-1.485424383,53.35463122
245,Prince Pharmacy,-0.157706166,51.50254018
246,Siddique Pharmacy,-1.774666398,53.7864316
247,All Saints Pharmacy,-1.643860828,52.79409574
248,Millstream Pharmacy,-2.150773047,52.59023642
249,Fordingbridge Pharmacy,-1.790825779,50.92735248
250,Meadway Health Centre,-2.344298934,53.413322
251,Community Nursing Office,-2.904362628,54.37475889
252,Clemitsons Chemist,-1.747097126,54.71675104
253,Mariner House,1.146334052,52.05760886
254,Hythe Hospital,-1.4034593,50.85856243
255,St Michael's Hospital,-2.599390774,51.45913078
256,Berwick Maternity Unit,-2.004979449,55.77328492
257,Central Middlesex Hospital,-0.268860116,51.53087788
258,University Hospital of Wales,-3.189845993,51.50715505
259,Community Midwifery,0.709175612,52.23166228
260,Longton Health Centre,-2.135393378,52.99206543
261,Abbey Hulton Health Centre,-2.145168595,53.03266687
262,Learning Disabilities Community Nurses,-2.122167799,52.97804136
263,Smallthorne Health Centre,-2.172694297,53.05099479
264,Trent Vale Health Centre,-2.20046539,52.98831029
265,Downing Close Clinic,-1.745147756,52.37922444
266,Great Oaks Clinic,0.456155191,51.57160742
267,Aveley Clinic,0.256089456,51.49606449
268,Purfleet Care Centre,0.234177899,51.48638491
269,Community Nurses Office,-0.338607105,51.80689088
270,Bethnal Green Health Centre,-0.064255566,51.52691561
271,London Colney Clinic,-0.299659205,51.72284361
272,Mandeville Clinic,-0.339649447,51.73743399
273,Oxhey Drive Health Centre,-0.39020669,51.62574639
274,Principal Health Centre,-0.336362672,51.7523951
275,Durnford Street Clinic,-2.197286221,53.55294151
276,Langley Clinic,-2.213823158,53.557427
277,Colman Road Health Centre,1.260299294,52.62604111
278,Fakenham Health Office,0.855775747,52.82965941
279,Marsh Farm Health Centre,-0.452858864,51.91710504
280,Leagrave Health Clinic,-0.467386808,51.9012451
281,West Mersea Clinic,0.913971701,51.77849087
282,City Community Mental Health Team,1.287993563,52.6216362
283,Greenstead Clinic,0.936247047,51.89164403
284,Community Learning Difficulties Service,-0.142012318,51.53731837
285,Vicarage Field Health Centre,0.081365497,51.53794704
286,Comely Bank Clinic,-0.010089903,51.58283347
287,Community Nurses Office,0.002100103,51.55541452
288,South Forest Centre,0.00348472,51.55475241
289,Stuart Crescent Health Centre,-0.110257865,51.60001019
290,Standon & Puckeridge Health Centre,0.023093933,51.88763008
291,Torbay Hospital,-3.553803862,50.48231611
292,Monkspath Clinic,-1.783889284,52.39077293
293,Oak Tree Lane Health Centre,-1.154515562,53.13410354
294,Devon Health Visiting Service,-3.406718373,50.62646359
295,Bradford Sexual Health,-1.751705323,53.79369354
296,Ashford Unit,-1.525414504,50.9316127
297,Staffa Health Centre,-1.338696678,53.145792
298,Whitwell Health Centre,-1.206351097,53.28428763
299,Pasley Road Health Centre,-1.146741231,52.59128673
300,St Peters Health Centre,-1.119714978,52.63167001
301,Syston Health Centre,-1.072779322,52.70015289
302,Phoenix Children's Resource Centre,0.023975317,51.39582246
303,The Bridge,-1.352644499,50.97123739
304,Edenbridge & District War Memorial Hospital,0.066527303,51.18948946
305,Atkinson Health Centre,-3.228815153,54.11027956
306,Wrose Health Centre,-1.744407779,53.82299697
307,Jordan House,-2.449876753,52.67978699
308,Kamsons Pharmacy,-0.414013415,51.87604459
309,Salus Pharmacy,-2.197777654,53.17265788
310,Currie's Chemists,-1.768080763,53.73793402
311,Windhill Green Medical Centre,-1.766702283,53.83496934
312,Grange Community Clinic,-2.910168156,54.19373227
313,Gresford District Nurses Office,-2.97018033,53.08832519
314,Portland Health Centre,-2.437278187,50.54402273
315,Horn Lane Pharmacy,-0.268992155,51.51409111
316,South Reddish Clinic,-2.157479632,53.42232588
317,Heaton Norris Health Centre,-2.16792993,53.41653199
318,Hollins House,-2.062177632,53.39609886
319,North Reddish Clinic,-2.158473548,53.44555808
320,Dalton Clinic,-3.182273577,54.15831962
321,Southampton Health Care for Homeless People,-1.396300281,50.91411197
322,Firth Park Clinic,-1.447658386,53.41938337
323,Helston Community Hospital,-5.264879126,50.09195528
324,St Just Health Centre,-5.682077357,50.12414672
325,Jasmine Court Independent Hospital,0.021183782,51.69194763
326,Bayswater Pharmacy,-0.188302716,51.51689217
327,Trinity Medical Centre,-1.494831781,53.67994295
328,Kinta House,-2.737472357,54.3128656
329,Community Nurses Office,-1.683197862,55.00594538
330,The Brook Health Centre,-0.99175665,52.12729227
331,Duddon House,-3.216729232,54.12276104
332,Bounds Green Health Centre,-0.127266771,51.60645429
333,Community Nurses Office,-0.050556262,51.5136
334,Gosforth Health Centre,-1.618727801,55.00683894
335,Rossington Pharmacy,-1.086270743,53.48179294
336,Fox View Hub,-1.649151069,53.70398822
337,Coley Clinic,-0.983161022,51.44652814
338,Evans Pharmacy,-0.809318554,53.07747344
339,Community Nurses,-1.106884146,51.62043982
340,Health Visitors Office,-3.217904197,51.40727
341,District Nurses Office,-3.480667315,53.32663434
342,Community Nurses Office,-4.158583882,50.41027639
343,Bicester Community Hospital,-1.158077976,51.89619065
344,Llantwit Major Clinic,-3.480170219,51.40768713
345,Kineton Pharmacy,-1.511387173,52.15678743
346,Morrisons Pharmacy,-1.566484661,55.03645343
347,Yorkshire Smokefree,-1.458209899,53.39125491
348,St Leonard's Community Hospital,-1.856577862,50.81726003
349,Community Nurses,-2.48660267,52.90948702
350,District Nurses Office,-0.654175315,53.56596645
351,Brough Primary Care Contact Centre,-0.572861391,53.72954985
352,Chislehurst Pharmacy,0.055715207,51.40766208
353,St Ann's Hospital,-1.92811706,50.69914495
354,Castle Lodge Independent Hospital,-0.307090992,53.78862145
355,South View - Briardene Unit,-1.292297203,54.5927015
356,The London Clinic - Consulting Rooms,-0.150487268,51.52247083
357,Huntington House,-1.051137425,53.98666216
358,The Chappell Centre,-0.150734416,52.79379609
359,Well Pharmacy,-2.094741743,53.57550983
360,Watford Clinic,-0.404048036,51.65947567
361,Urgent and Emergency Care Centre,-1.342880402,53.41397222
362,Gannow Lane Resource Centre,-2.272392037,53.78969436
363,Health Visitors Office,-3.033028621,53.11699735
364,Motts Pharmacy,1.11071687,52.76268842
365,East Barnet Health Centre,-0.166613444,51.64664795
366,Saffron Walden Community Hospital,0.258811699,52.02411689
367,Llanrumney Clinic,-3.127396133,51.51412031
368,Rusholme Health Centre,-2.226178214,53.45461002
369,Community Services,-0.646220596,53.56824081
370,District Nurse Office,-0.315029915,53.49427745
371,West Kirby Health Centre,-3.182413151,53.37357484
372,Community Nurses,-3.00496635,53.35033026
373,Crabtree Pharmacy,-1.834381632,52.1719691
374,Tynemouth Road Health Centre,-0.068331437,51.58625258
375,Wythenshawe Offices,-2.255273949,53.39062927
376,District Nurses Office,-3.477525166,51.20382832
377,Community Nurses,-1.340690998,52.06032346
378,Queensborough House,-0.51941023,51.8839549
379,Assessment and Rehabilitation Centre,-1.497596721,53.36141111
380,"Bath, North & East Somerset Comm Respiratory Svc",-2.370187154,51.35733137
381,Swindon Community Health Service,-1.806362609,51.59769318
382,Clementhorpe Health Centre,-1.082930422,53.95147801
383,Willows Centre for Health Care,-2.309137119,53.48546125
384,Wickford Health Centre,0.518194527,51.613307
385,Rainham Health Centre,0.196288449,51.51969662
386,Northgate Hospital,1.730506172,52.61719805
387,Community Development,-2.131838551,53.42818425
388,Judds Chemist,-0.265726058,51.58980311
389,Limelight Pharmacy,-2.261751689,53.46136497
390,Saffron Pharmacy,-1.140598244,52.60195846
391,Regent Pharmacy,-0.222664838,51.60921533
392,Kamsons Pharmacy,-0.063236621,51.4132496
393,Integrated Community Services,-0.413171363,53.8527738
394,Salters Meadow Health Centre,-1.933023427,52.68216011
395,Health Visitors,0.279805515,51.21347852
396,Community Nurses Office,-0.804312027,51.82658985
397,District Nurses Office,-0.985446363,52.00171569
398,Community Nurses,-0.668950572,51.79080803
399,Thame Community Hospital,-0.969657113,51.74482503
400,Living Care Pharmacy,-1.546426933,53.7735173
401,West Locality Health Visiting Team,-4.16712616,50.39279164
402,East Hill Pharmacy,-0.184448851,51.45756306
403,Ridgway Pharmacy,-0.219551713,51.42142991
404,Kamsons Pharmacy,-0.194147498,51.3601972
405,Tanna Pharmacy,-0.132722839,51.39986051
406,S G Barai Pharmacy,-0.180908059,51.36988429
407,Saturn Pharmacy,-0.1402878,51.4249471
408,Victoria Chemists,-0.226986063,51.37165181
409,Barkers Chemist,-0.189121965,51.44859784
410,Day Lewis Pharmacy,-0.134206664,51.35341975
411,Haria Pharmacy,-0.248559735,51.41471972
412,R K Pharmacy,-0.15520644,51.37915852
413,R Walji Pharmacy,-0.250515189,51.46330656
414,Northcote Pharmacy,-0.165372071,51.45587224
415,Rowlands Pharmacy,-0.186267259,51.39775642
416,Krystal Pharmacy,-0.165970068,51.47219407
417,Kirkby's Chemist,-0.2005564,51.34400111
418,Jennings Chemist,-0.166451425,51.47203974
419,Mansons Pharmacy,-0.197601482,51.4569297
420,East Chemist,-0.240184489,51.45005892
421,Kamsons Pharmacy,-0.171418283,51.37173473
422,Lafford Chemist,-0.131715848,51.36741051
423,Kamsons Pharmacy,-0.168241931,51.37298725
424,Abbey Pharmacy,-0.184637707,51.41600236
425,Haydons Pharmacy,-0.187559168,51.42082264
426,Fairoak Pharmacy,-0.147115854,51.41972262
427,Eagle Pharmacy,-0.136515631,51.40416813
428,Tooting Pharmacy,-0.164148869,51.43146522
429,Fairlight Chemist,-0.140542339,51.41073738
430,Day Lewis Pharmacy,-0.156283587,51.46530674
431,Fazal Pharmacy,-0.199474096,51.44994431
432,Bradbury Pharmacy,-0.147676877,51.4243447
433,Aura Pharmacy,-0.221288651,51.44114992
434,Chemco Pharmacy,-0.19423529,51.41973777
435,Cooper & Co (Sutton) Ltd,-0.192137677,51.3601689
436,Cospharm Pharmacy,-0.160595826,51.42106802
437,Wimbledon Pharmacy,-0.216978021,51.42525128
438,Barkers Chemist,-0.170584489,51.46842635
439,Barkers Chemist Ltd,-0.165404434,51.43028887
440,Bellevue Pharmacy,-0.166106676,51.44544337
441,Anna Pharmacy,-0.173743907,51.38441917
442,Stafford Pharmacy,-0.13918435,51.35966075
443,Superdrug Pharmacy,-0.242039445,51.3784972
444,Superdrug Pharmacy,-0.167933858,51.46271067
445,Boots,-0.238290843,51.46448138
446,Day Lewis Pharmacy,-0.190050474,51.38968199
447,Park Lane Pharmacy,-0.160983423,51.3656686
448,Pharmalite Pharmacy,-0.145108102,51.44408782
449,Kamsons Pharmacy,-0.181755471,51.40741741
450,Lloyds Pharmacy,-0.214588214,51.40311928
451,Lloyds Pharmacy,-0.173289704,51.35720208
452,Manor Pharmacy,-0.150417438,51.36214078
453,St Mary's Hospital,-1.301329937,50.71084296
454,Leicester Royal Infirmary,-1.135960753,52.62678214
455,The Barry Hospital,-3.285012394,51.41383413
456,Purley War Memorial Hospital,-0.114465525,51.34074039
457,Lyme Brook Mental Health & Resource Centre,-2.23899642,53.03870867
458,Fernwood Mental Health Resource Centre,-4.212932258,51.01502727
459,CMHT - Isle of Dogs,-0.025542652,51.4986899
460,Bramley Street Rehabilitation Unit,-2.255739711,53.49725455
461,TY Siriol CMHT Caerphilly,-3.22059414,51.57878288
462,Boots,-0.264952811,52.08618131
463,Boots,0.111478031,51.69954947
464,Boots,-0.52081894,51.88742808
465,Lloyds Pharmacy,-0.019272891,51.9466198
466,Boots,0.05552616,51.64831067
467,Boots,0.082755326,51.64694952
468,Lloyds Pharmacy,0.144320526,51.8586317
469,Boots,0.114235781,51.77570877
470,Lloyds Pharmacy,-0.081145657,51.79674847
471,Boots,0.241745199,52.02376405
472,Boots,0.677955768,51.73137923
473,Boots,-0.176465483,51.6161664
474,Boots,-0.056087388,51.62587809
475,Boots,-0.108761225,51.61823618
476,Boots,-0.124274058,51.57874313
477,Boots,0.446866841,51.52505556
478,Boots,0.323047757,51.47692805
479,Boots,0.417835195,51.62535505
480,Boots,0.282742281,51.50988355
481,Boots,0.283945417,51.48898721
482,Boots,0.606017715,51.58600098
483,Boots,0.592891285,51.52203354
484,Boots,0.520563716,51.6135709
485,Boots,0.132119212,52.20697568
486,Boots,0.14818867,52.21028994
487,Boots,0.550001313,51.87894349
488,Boots,0.900814631,51.88852124
489,Boots,0.640285861,51.80017632
490,Boots,1.280683066,51.93733153
491,Boots,-0.182586308,52.32975159
492,Boots,-0.284649686,52.59124408
493,Boots,-2.135366794,52.98833495
494,Shepway Community Mental Health Services,1.169168661,51.08602459
495,Boots,-2.227708333,53.01073864
496,Boots,-1.989278362,52.98701852
497,Boots,-2.02453064,53.10588817
498,Boots,-2.173893566,53.02653366
499,Boots,-1.740091801,52.47974927
500,Boots,-1.7722676,52.50185889
501,Boots,-1.826143046,52.41137589
502,Boots,-2.738075446,52.22683145
503,Boots,-2.422378181,52.03657603
504,Boots,-2.717041738,52.05649394
505,Boots,-2.076101766,52.56834151
506,Boots,-2.098375278,52.61299802
507,Well Pharmacy,-1.566600118,54.77876045
508,Well Pharmacy,-1.675768605,54.66413526
509,Stearns Chemist,-0.209129533,51.91265973
510,Coopers Chemist,-0.169929633,51.90868562
511,Warwick Pharmacy,-0.126488792,51.60840851
512,Pharmo Care,-0.070144432,51.59218148
513,Allcures Pharmacy,0.425307853,51.51561895
514,Unicare Pharmacy,0.447651648,51.52506526
515,Allcures Pharmacy,0.460242662,51.52603925
516,Unicare Pharmacy,0.327072222,51.47988342
517,G Whitfield Ltd,-1.383329165,54.81676306
518,G Whitfield Ltd,-1.511320004,54.84800749
519,M Whitfield Ltd,-1.502939453,54.71496294
520,Whitfield Chemist,-1.438195616,54.74971049
521,Borno Chemists,0.637199925,51.79775448
522,Borno Chemists,0.555047947,51.87992121
523,Boots,-0.19206884,51.40422003
524,Lloyds Pharmacy,-0.225033642,51.37213213
525,Lloyds Pharmacy,-0.181606429,51.41519729
526,Asda Pharmacy,-0.13021125,51.37683784
527,Griffiths Pharmacy,-0.238231673,51.39495937
528,Day Lewis Pharmacy,-0.153679598,51.47417738
529,Boots,-0.214818384,51.46427022
530,Boots,-0.194026783,51.4026945
531,Boots,-0.163449572,51.40638736
532,Boots,-0.215826874,51.46277484
533,Boots,-0.22967334,51.40969509
534,Boots,-0.204921039,51.44500102
535,Boots,-0.167337869,51.46285423
536,Boots,-0.1662122,51.42700123
537,Boots,-0.243406247,51.37957882
538,Mg Fazal Pharmacy,-1.850717734,52.48982928
539,Claremont House,-1.620196305,54.98212241
540,Dispharma Pharmacy,-1.852075545,52.48896615
541,Jhoots Pharmacy,-1.81949123,52.49343305
542,Lloyds Pharmacy,-1.82663498,52.49296186
543,Jhoots Pharmacy,-1.802898969,52.50079905
544,Jhoots Pharmacy,-1.817135081,52.50648553
545,Chemycare Pharmacy,-1.810356964,52.48442164
546,Lloyds Pharmacy,-1.794195104,52.48800773
547,Lloyds Pharmacy,-1.780590902,52.4819978
548,Dispharma Chemist,-1.861459468,52.47117915
549,Rowlands Pharmacy,0.002088522,51.39235855
550,Rowlands Pharmacy,0.087959872,51.36076023
551,Stag Chemist,-1.849343618,52.46695706
552,Hingleys Chemist,-1.84274713,52.47580362
553,Hingley Pharmacy,-1.839653712,52.47625796
554,Boots,-1.900343789,52.47909073
555,Boots,-1.894878894,52.47760806
556,Asda Pharmacy,-1.842429386,52.46375482
557,Stevens Chemist,0.089925608,51.35534736
558,Farrants,0.075589604,51.38961365
559,Superdrug Pharmacy,-0.028259098,51.40698287
560,Superdrug Pharmacy,0.099886282,51.37623081
561,Lloyds Pharmacy,0.055195158,51.36606999
562,Boots,0.011300095,51.37722767
563,Boots,0.020894876,51.42083976
564,Lloyds Pharmacy,0.105707189,51.35653056
565,Lloyds Pharmacy,0.067218437,51.41817924
566,Lloyds Pharmacy,0.106561737,51.39017598
567,Boots,-0.07186953,52.32333867
568,Boots,0.036754538,51.30902601
569,Boots,-0.028204782,51.40724275
570,Boots,0.015813445,51.40243801
571,Boots,-0.052630909,51.41453427
572,Starr Pharmacy,-0.114591169,51.52288851
573,Superdrug Pharmacy,-0.193539758,51.53861772
574,Morrisons Pharmacy,-0.149727319,51.54121714
575,Day Lewis Pharmacy,-0.141491966,51.54584398
576,Superdrug Pharmacy,-0.17591999,51.54435202
577,Boots,-0.177206061,51.54501047
578,Boots,-0.13859714,51.53503589
579,Boots,-0.177649021,51.55630283
580,Cromer Hospital,1.309159844,52.92356702
581,Eastleigh Community Enterprise Centre (MIND),-1.34450099,50.96920197
582,Community Nurses Office,-1.855995133,50.74809739
583,Addiction Team,-0.342889846,53.74722949
584,Warstock Lane Centre,-1.877457227,52.41954014
585,Community Mental Health Team,-1.530410884,53.77427359
586,Community Services,-3.195579169,51.48066951
587,Gold Tops,-3.00209298,51.58967324
588,Dean View CMHT,-3.652352293,50.78771876
589,Community Health Services,0.467163782,51.74587919
590,Elizabeth Dibben Centre,-0.859974961,51.10802522
591,Witham Health Centre,0.642875662,51.80055877
592,Community Mental Health Centre,1.262614129,51.93438034
593,Tamworth Road Resource Centre,-0.105347735,51.37521538
594,South Croydon Community Mental Health Services,-0.114765702,51.34112292
595,Boots,-0.227669366,51.76290061
596,Boots,-0.012296633,51.76026481
597,Boots,-0.032175724,51.68629557
598,Boots,-0.031397791,51.8111651
599,Boots,-0.226750403,51.97842467
600,Boots,-0.242865643,52.57363866
601,Boots,-0.56459023,51.76068375
602,Acorn Dispensing Chemist,-0.411697325,51.90796078
603,Ingrave Pharmacy,0.327646703,51.6120881
604,Superdrug Pharmacy,-0.200976363,51.90143939
605,Superdrug Pharmacy,0.713666449,51.53573191
606,Superdrug Pharmacy,0.131341157,52.20662107
607,Superdrug Pharmacy,0.120422678,52.20631427
608,Superdrug Pharmacy,-0.46998541,52.13755593
609,Superdrug Pharmacy,-0.413952907,51.87941566
610,Boots,0.169696173,52.12375004
611,Boots,-0.194380185,51.79165415
612,Boots,-0.172234438,51.80177872
613,Asda Pharmacy,0.780740868,51.53930486
614,Boots,0.504041914,51.56615412
615,Boots,0.441865567,51.57291298
616,Boots,0.413746606,51.63733706
617,Rowlands Pharmacy,0.47379067,51.57798179
618,Boots,0.699949048,51.83613404
619,Boots,0.625239455,51.80509093
620,Boots,0.936261559,51.89164367
621,Boots,0.912183129,51.88141409
622,Boots,0.96388441,51.86941969
623,Boots,0.622436627,51.84650414
624,Rowlands Pharmacy,1.245170138,51.8335871
625,Boots,1.060675452,51.9456381
626,Boots,0.147788833,52.18773641
627,Boots,0.4640292,51.74764466
628,Morrisons Pharmacy,0.446666793,51.75504004
629,Boots,0.737348978,51.54154899
630,Lanchester Pharmacy,-1.743247747,54.8223706
631,Superdrug Pharmacy,-2.210590304,53.05799011
632,Rowlands Pharmacy,-2.74002018,52.05826868
633,Kington Pharmacy,-3.029940886,52.20341318
634,Superdrug Pharmacy,-2.175799142,53.02729942
635,Superdrug Pharmacy,-0.27504609,51.61197773
636,Morrisons Pharmacy,-1.773901062,52.41302273
637,Superdrug Pharmacy,-1.573564022,54.85721037
638,Boots,-2.185827788,52.57704882
639,Morrisons Pharmacy,-2.710094782,52.05951286
640,Boots,-1.313380369,54.76528045
641,Well Pharmacy,-2.142054015,53.11927121
642,Well Pharmacy,-2.211808028,53.05985768
643,Well Pharmacy,-2.126439331,52.57329039
644,Pennfields Pharmacy,-2.14547654,52.57191643
645,High Street Pharmacy,-2.081029372,52.56348911
646,Pharmacy First,-2.105618398,52.60465826
647,Well Pharmacy,-0.043624464,51.66503097
648,Boots,-0.12419272,51.52461614
649,Boots,-0.11304044,51.51855615
650,Boots,-0.120561026,51.5172381
651,Holborn Pharmacy,-0.121863162,51.52027145
652,Niemans Chemist,-0.11844273,51.52212305
653,H V Thomas Pharmacy,-0.195817152,51.55213237
654,John Walker Chemist,-0.12460278,51.52691579
655,JP Pharmacy,-0.141939305,51.5376949
656,Biotech Pharmacy,-0.13851743,51.54133656
657,Sandylight Chemist Ltd,-0.15280844,51.54952975
658,Newcare Pharma Ltd,-0.221146812,51.54952467
659,Green Light Pharmacy,-0.138453304,51.52665082
660,EICO Pharmacy,-0.145468318,51.55516912
661,Fine Pharmacy,-0.151587077,51.5497713
662,Ritz Pharmacy,-0.178834833,51.55659101
663,House of Mistry Chemist,-0.165937211,51.55446574
664,Allchin Chemist,-0.162161901,51.54613362
665,Hampstead Heath Pharmacy,-0.166292509,51.55495688
666,Chana Chemist,-0.108807719,51.53339759
667,Osbon Pharmacy,-0.278338934,51.59755128
668,CAMHS,-3.546351314,54.63696273
669,St Albans Children's Centre,-0.344179813,51.75494231
670,Community Mental Health Services,-0.40635983,51.66734809
671,Gr Pharmacy,-1.983306966,52.43038128
672,Aston Chemist Ltd,-1.974264192,52.42626224
673,Kings Pharmacy,-1.969693603,52.43693953
674,Highfield Road Pharmacy,-1.85593728,52.42201516
675,M W Phillips Chemists,-1.893011274,52.42676522
676,Selcroft Pharmacy,-1.979029651,52.45624667
677,Shivo Chemists,-0.13033572,51.56432607
678,Nuchem Pharmaceutical Ltd,-0.114229772,51.57000336
679,Rajja Chemists,-2.002192896,52.45600393
680,My Local Chemist,-1.814867029,52.47748762
681,Lloyds Pharmacy,-1.763205884,52.47365848
682,Axbridge Pharmacy,-2.817315292,51.28688747
683,Well Pharmacy,-1.560237279,55.16968579
684,Cohens Chemist,-1.568189208,55.18198905
685,Well Pharmacy,-1.511793969,55.18499704
686,Well Pharmacy,-1.696684987,55.41007515
687,Cromie Pharmacy,-1.580250104,55.33353176
688,Roundwell Rehabilitation Community Team,-2.212447149,53.05935315
689,Tyrrell Hospital,-4.124420481,51.20451365
690,The Haywood Hospital,-2.191418898,53.05694295
691,Danetre Hospital,-1.16036182,52.25246529
692,Torrington Hospital,-4.13696804,50.95472645
693,Lings Bar Hospital,-1.099820756,52.92256985
694,Didcot Community Hospital,-1.260127131,51.60442679
695,Memorial Hospital,0.063982051,51.46859623
696,Community Mental Health Services,0.051910483,51.64538839
697,Cherry Tree House,1.126628916,51.08989466
698,Child & Family Consultation Service,0.080721233,51.54674258
699,Derby Substance Misuse Team,-1.557320625,52.7719789
700,Clinical Psychology Services,-1.4844283,52.93218752
701,Advice & Resource Centre,-1.933836422,52.75915282
702,Harrow Lodge House,0.206977656,51.56146584
703,Heathlands Day Centre,-0.763944272,51.40708731
704,Well Pharmacy,-0.046313204,51.66034572
705,Well Pharmacy,-1.670252607,54.79964734
706,Hingleys Chemists,-2.14059821,52.57640645
707,Lloyds Pharmacy,-0.276559019,51.95172863
708,Lloyds Pharmacy,-0.203214561,51.81527669
709,Lloyds Pharmacy,-0.224020752,51.98294056
710,Lloyds Pharmacy,-0.183345985,51.98533686
711,Lloyds Pharmacy,-0.215326354,51.82965949
712,Lloyds Pharmacy,-0.023721532,52.04778698
713,Day Lewis Pharmacy,1.249551685,51.84402539
714,Medix Pharmacy,-0.207981732,51.91059391
715,Boots,-1.827759489,54.8513122
716,Boots,0.535825858,51.6017936
717,Boots,0.566995641,51.52401619
718,Boots,0.580563222,51.51995821
719,Morrisons Pharmacy,0.60737189,51.55445958
720,Morrisons Pharmacy,0.05573648,51.64912531
721,Well Pharmacy,-0.179147417,51.88206951
722,Well Pharmacy,0.6361886,51.94309746
723,Well Pharmacy,0.125122602,52.28757904
724,Well Pharmacy,0.106818781,52.25162517
725,Well Pharmacy,0.016164544,52.08353306
726,Well Pharmacy,-0.246340463,52.58714955
727,Well Pharmacy,-0.242820296,52.60687732
728,Well Pharmacy,0.520292622,51.61378806
729,Well Pharmacy,0.705661634,51.58236906
730,Well Pharmacy,0.329196819,51.49811529
731,Well Pharmacy,0.12357603,51.70600116
732,Well Pharmacy,0.245747648,51.70506873
733,Shadforth Pharmacy,0.468682827,51.75115317
734,Shadforth Pharmacy,0.421066612,51.6304145
735,Shadforth Pharmacy,0.418188355,51.62656184
736,Burntwood Pharmacy,0.307291823,51.62228337
737,Shadforth Pharmacy,0.385353235,51.67114489
738,Shadforth Pharmacy,0.520218907,51.61230126
739,Garbett Chemist,0.520454748,51.61316854
740,Boots,-2.434696643,55.59832784
741,Lindsay & Gilmour Pharmacy,-2.785121721,55.424616
742,Chepstow Community Hospital,-2.686560851,51.63939501
743,Maindiff Court Hospital,-2.994930881,51.83290799
744,Plymouth Child Development Centre,-4.163131621,50.39034761
745,Erith & District Hospital,0.166643382,51.47711267
746,Rushden Memorial Clinic,-0.601886101,52.29894578
747,The Park Rehabilitation Centre,-1.332440871,53.43116365
748,Victoria House,1.7520937,52.47806171
749,Lambeth Learning Disability Partnership,-0.12557303,51.4853768
750,Health Visitors Office,0.79354658,51.55387623
751,Children's Unit,-0.707865209,52.40787058
752,Moray Lodge,-0.946287676,52.24586088
753,Gwent Drug Service,-2.991111696,51.58387698
754,Newcastle Treatment and Recovery,-1.607293512,54.97372425
755,Jesmond Project,-1.604200893,54.98320372
756,Community Mental Health Rehabilitation Centre,-1.411768694,50.9102342
757,Community Mental Health Team - Rehabilitation,-1.808221628,52.43866001
758,Mental Health Rehabilitation Unit,-1.574858249,54.84670973
759,Lindsay & Gilmour Pharmacy,-2.841771767,55.5473624
760,Well Pharmacy,-3.356275228,55.12253582
761,Well Pharmacy,-3.067402478,54.99516652
762,Andrews Pharmacy,-0.033065976,51.81150146
763,Hingleys Chemist,-2.084981032,52.46961645
764,Hingley Chemist,-2.044020189,52.4748117
765,Argyll House,-1.495575064,53.36400932
766,Dalston Pharmacy,-2.998448863,55.15092227
767,Earlston Pharmacy,-2.676860747,55.63858997
768,H.H.C.C. (Pharmacy) Ltd,-2.787492054,55.42312439
769,Right Medicine Pharmacy,-2.839937407,55.54830052
770,Eildon Pharmacy,-2.670487002,55.57606809
771,Jedburgh Pharmacy,-2.554550838,55.4784807
772,Dunmow Clinic,0.362843818,51.86989377
773,Bassett Green Community Centre,-1.391924443,50.93772144
774,Alton Health Centre,-0.966973736,51.1537391
775,Bassetlaw Mental Health Services,-1.121091167,53.30363749
776,Community Nurses Office,-2.080134295,51.06535648
777,Community Mental Health Services,0.339528336,53.14463235
778,St Michael's Hospital,-5.42442319,50.18035163
779,Royal National Hospital for Rheumatic Diseases,-2.361436352,51.38226123
780,Royal National Orthopaedic Hospital,-0.143288898,51.52331031
781,The Junction,-0.094249124,53.56338096
782,Adams Hill Centre,-2.003971843,52.43827559
783,Mental Health Services,-1.485804429,53.02908637
784,Hynca Lodge,-1.376679458,52.55205801
785,Community Mental Health Services,-1.106639938,52.58152456
786,SW City Community Mental Health,-1.131679239,52.58331998
787,Sandringham Suite,-1.090595601,52.66430859
788,Community Mental Health Services,-0.055081573,51.49725911
789,Community Mental Health Services,-0.115498826,51.49007132
790,Westminster Drug & Treatment Centre,-0.174213194,51.51712602
791,The Worsley Building (Leeds Dental Institute),-1.5557103,53.8033708
792,Boots,-0.303444215,53.76003557
793,Boots,-0.301995448,53.78015082
794,Boots,-0.492411857,53.73831513
795,Boots,-0.173185535,53.71894522
796,Boots,-0.41480976,53.78210893
797,Boots,-0.194052005,54.08453521
798,Boots,0.033026112,53.73011648
799,Boots,-0.348849301,53.75807174
800,Well Pharmacy,-2.072659488,53.53854738
801,Well Pharmacy,-2.142182106,53.54555861
802,Boots,-0.373809756,53.75631851
803,Boots,-0.41368469,53.78095244
804,Boots,-0.733159146,53.75280752
805,Oakleigh Pharmacy,-0.159439022,51.62610697
806,Shore Pharmacy,-0.15703699,51.63008436
807,Hampden Square Pharmacy,-0.143550333,51.63234747
808,Lloyds Pharmacy,-0.26850794,53.77919545
809,Lloyds Pharmacy,-0.361089435,53.74291326
810,Lloyds Pharmacy,-0.571497143,53.72910213
811,Lloyds Pharmacy,-0.27293179,53.75757724
812,Lloyds Pharmacy,-0.872047663,53.7071575
813,Lloyds Pharmacy,-0.417501873,53.84687403
814,Lloyds Pharmacy,-0.413955145,53.78223246
815,Boots,-0.438389473,54.00433454
816,Boots,-0.872363764,53.70496726
817,Boots,-0.435344815,53.7229432
818,Boots,-0.312228016,53.75435255
819,Boots,-0.359008958,53.76478231
820,Boots,-0.189414126,54.08262367
821,Asda Pharmacy,-0.346268731,53.79455714
822,Boots,-0.397204259,51.67068543
823,Superdrug Pharmacy,-0.392220116,51.65183207
824,Boots,-0.470395951,51.63927235
825,Boots,-0.316218321,51.68241103
826,Boots,-0.190979152,51.69865924
827,Whitworth Chemists Ltd,-2.134417352,53.52883128
828,Tesco in-store Pharmacy,-1.962141512,53.44481449
829,Boots,-1.967533335,53.46217282
830,Lloyds Pharmacy,-2.130361218,53.45584978
831,Boots,-1.95032482,53.44314732
832,Tesco in-store Pharmacy,-2.148308523,53.48069989
833,Greencross Pharmacy,-2.113767852,53.45666675
834,Boots,-2.078639896,53.49265788
835,Lloyds Pharmacy,-2.045975642,53.51842674
836,Well Pharmacy,-2.142893795,53.4791515
837,Stockport Road Pharmacy,-2.107593873,53.48064469
838,Boots,-2.078626752,53.45145303
839,Boots,-2.145597764,53.48026819
840,Aspden Chemists,-0.121431362,51.61267101
841,Boots,-2.095963925,53.4885195
842,Park Royal Centre for Mental Health,-0.269839179,51.53319437
843,Oakleigh Road Health Centre,-0.158935933,51.62475833
844,Community Nurses Office,-0.271608877,51.60429007
845,Temple Fortune Health Centre,-0.197848425,51.58109743
846,Western Eye Hospital,-0.162978492,51.52084165
847,Williton Hospital,-3.323208479,51.16288772
848,Liverpool Heart and Chest Hospital,-2.900017492,53.41030882
849,Boots,0.173078393,52.18702144
850,Ditton Pharmacy,0.169021125,52.21516909
851,Lloyds Pharmacy,0.865122231,51.88063656
852,Orchard Resource Centre,-1.367864901,52.5404142
853,Garden Clinic for Sexual Health,-0.593757431,51.50535945
854,Boots,0.636380433,51.94393671
855,Kays Chemist,0.152896798,52.18051265
856,Netherton Pharmacy,-0.274103722,52.5797264
857,Mi Pharmacy,-0.232395763,52.58078345
858,Britannia Pharmacy,0.593299011,51.51530637
859,Britannia Pharmacy,0.568263324,51.51964369
860,The Old Swan Pharmacy,-0.389712429,52.29724162
861,Britannia Pharmacy,0.604514887,51.52109241
862,Davies Chemists,0.129234687,52.19684892
863,N K Jank Chemist,0.11015798,52.19478187
864,Boots,1.078502782,51.79945982
865,Mansfield Chemist,1.161511289,51.85770536
866,The Lighthouse Pharmacy Ltd,1.142051307,51.82671171
867,Boots,1.154659574,51.80524657
868,SKOT Dispensing Chemist,-0.066000834,51.62276858
869,Oakley Pharmacy,1.243048073,51.929399
870,Well Pharmacy,0.636298382,51.94209137
871,Jade Pharmacy,-0.263507193,51.60301589
872,Easter Pharmacy,0.043421331,51.61731777
873,Hale Pharmacy,-0.260811178,51.61669634
874,Hambro Pharmacy,0.609908657,51.60123931
875,Grange Pharmacy,0.594710577,51.59379709
876,Yardley Chemist,0.607896886,51.58720211
877,French's Chemist,0.632648826,51.54853656
878,Cross Chemist,0.551729554,51.5675978
879,Osbon Pharmacy,0.649137947,51.57007893
880,Armada Pharmacy,0.304409626,51.4898458
881,South Road Pharmacy,0.297072002,51.52285949
882,Daynite Pharmacy,0.610661954,51.55318846
883,Wilkinson Chemist,-0.201616393,51.65653221
884,The New Pharmacy,0.304093535,51.62109348
885,Cohens Chemist,0.326828139,51.63025215
886,Porter Pharmacy,-0.085745843,51.60500843
887,Rowlands Pharmacy,0.329218532,51.6310204
888,Village Pharmacy,0.297647277,51.66768886
889,AA Pharmacy,0.486715032,51.58232209
890,Allcures Pharmacy,0.507368914,51.57912154
891,Community Nurses Office,-0.064429436,51.56495697
892,Dave's Chemist,0.234479229,51.48636118
893,Bridgwater Pharmacy,0.67453753,51.55728923
894,Cartwrights Pharmacy,0.599083967,51.55760059
895,Rishi Pharmacy Ltd,0.582052039,51.56893078
896,Elora Pharmacy,0.562697931,51.54939884
897,Bansals Pharmacy,0.761598597,51.53638459
898,Shoebury Pharmacy,0.795083948,51.52930447
899,Deejay Pharmacy,0.784148296,51.53062592
900,West Road Pharmacy,0.780481635,51.52984953
901,Hawkwell Pharmacy,0.6657687,51.59753717
902,Ferry Pharmacy,0.612956963,51.62388885
903,Nutan Pharmacy,0.692645401,51.60588099
904,Golden Cross Pharmacy,0.696440278,51.5963146
905,Hockley Pharmacy,0.663042192,51.60473994
906,Allcures Pharmacy,0.481046394,51.55749479
907,Sach Chemist,0.505958499,51.565293
908,Vanas Pharmacy,0.510038547,51.5728231
909,Clayhill Road Pharmacy,0.483854155,51.56639267
910,Rays Pharmacy,0.718328524,51.54209039
911,Lloyds Pharmacy,0.70909492,51.54082911
912,Shotgate Pharmacy,0.547807079,51.60917837
913,Murray Miller Pharmacy,0.715727503,51.5521786
914,Well Pharmacy,-2.123873184,53.56613891
915,Well Pharmacy,-2.122171662,53.56669435
916,Well Pharmacy,-2.023607203,53.56791411
917,Well Pharmacy,-2.09509482,53.53777657
918,Suburb Pharmacy,-2.123086833,53.52315387
919,Lees Road Pharmacy,-2.089804188,53.54034235
920,Lloyds Pharmacy,-2.09509484,53.53778556
921,Well Pharmacy,-2.107588732,53.54394994
922,Well Pharmacy,-2.085609681,53.54797654
923,Well Pharmacy,-2.138497705,53.53475804
924,Well Pharmacy,-2.005513889,53.53559433
925,Boots,-2.112245728,53.5416716
926,Boots,-2.14093634,53.54579199
927,Zara Pharmacy,-0.046702495,51.64671968
928,Keith's Pharmacy,-0.382753587,53.7702827
929,Rowbotham Pharmacy,-0.012833979,53.68364318
930,Holme Pharmacy,-0.765927962,53.83685824
931,Cohens Chemist,-2.118465024,53.45559704
932,Leven Pharmacy,-0.313856552,53.89042543
933,Focus Pharmacy,-2.156673329,53.50979371
934,B A Whittle Chemist,-0.167735348,53.91171882
935,Lloyds Pharmacy,-0.440172046,54.00669114
936,Spinks the Chemist,-0.435170222,53.84104543
937,Station Avenue Pharmacy,-0.20135432,54.0847354
938,F F & R Stevenson Pharmacy,-0.307348738,53.76743493
939,Newtons Pharmacy,-0.40858676,53.74439834
940,Day Lewis Pharmacy,-0.16723496,53.91236739
941,Day Lewis Pharmacy,-0.359044643,53.76231079
942,Chagcrest Pharmacy,-0.386069496,51.67392295
943,Rizwan Pharmacy,-2.119639502,53.45607675
944,Wains Chemist,-2.100756428,53.44406761
945,Moorland Pharmacy Ltd,-1.969883296,53.44022356
946,Windmill Pharmacy,-2.142327631,53.44959809
947,The Mews Pharmacy,-1.984648366,53.44828542
948,Cohens Chemist,-2.089191259,53.48936158
949,Cohens Chemist,-2.088475875,53.48960391
950,Chadwick & Hadfield Pharmacy Ltd,-2.040768651,53.51447375
951,Boots,-2.027460706,53.45033612
952,Wolstenholme & McDiarmid Pharmacy,-2.093911496,53.57567228
953,Gardners Chemist,-2.120432264,53.54971717
954,F T Taylor (Watford) Ltd,-0.418032117,51.68304403
955,Lomas Pharmacy,-2.11006403,53.52089254
956,Lifestyle Pharmacy,-2.107375993,53.58499975
957,Vision Pharmacy,-0.397613878,51.67014251
958,Park Pharmacy,-0.385542612,51.68955281
959,Leavesdon Pharmacy,-0.403509456,51.70111924
960,Cassiobury Pharmacy,-0.417483446,51.66724672
961,Brocklehurst Chemists,-0.40890459,53.75284329
962,Brocklehurst Chemists,-0.415718618,53.7535448
963,John Wilson Chemist,-0.228733917,51.58244619
964,Hendon Pharmacy,-0.230306366,51.58265336
965,Community Nurses Office,-0.973564402,51.46957157
966,South Sefton Neighbourhood Centre,-3.020208436,53.47671046
967,Harworth Clinic,-1.062652185,53.41662353
968,Chorlton Health Centre,-2.279717273,53.44377326
969,Bristol Eye Hospital,-2.594545542,51.45843613
970,Alexandra Park Health Centre,-2.253502286,53.45576856
971,Burscough Health Centre,-2.84115065,53.60291603
972,The Devonshire Centre for Neuro-rehabilitation,-2.131686337,53.39214394
973,Bodmin Hospital,-4.74115108,50.46753829
974,Severn Fields Health Village,-2.721621191,52.72803135
975,Chapel Allerton Hospital,-1.529809829,53.82263591
976,North Trafford Combined Care Centre,-2.274100134,53.45288267
977,Weston Park Hospital,-1.494932276,53.38024918
978,DynamicHealth,-0.245855917,52.57007764
979,Gloucestershire Heart and Diabetes Service,-2.24929275,51.86299002
980,Cale Green Pharmacy,-2.156967654,53.39775186
981,Numark Pharmacy,0.141482067,52.18831866
982,Wickham Market Pharmacy,1.362905336,52.15317188
983,Reena Pharmacy,-0.124681618,51.57795831
984,Coral Pharmacy,-0.133543472,51.58711
985,Frost & Co,-0.118791907,51.58777371
986,Saigrace Pharmacy,-0.116501582,51.58346557
987,VMS Pharmacy,-0.05375732,51.63373485
988,Atkinson Chemist,-0.096089948,51.64218043
989,Muswell Hill Pharmacy,-0.146615357,51.5904645
990,Hayward Pharmacy,-0.147613437,51.57763911
991,Greenacre Pharmacy,-0.14754305,51.64890245
992,Reid's Pharmacy,-0.071233084,51.63395132
993,Capricorn Pharmacy,-0.108911421,51.65464422
994,Cooper Chemist,-0.135177019,51.61630728
995,Hayward Chemist Ltd,-0.070415624,51.6416354
996,Pyramid Pharmacy,-0.134822763,51.64678572
997,Rocky's Pharmacy,-0.08534017,51.61670997
998,Dowsett Pharmacy,-0.066027596,51.59461362
999,Reena Pharmacy,-0.074682031,51.58422572
1000,Pharmacy Express,-0.110280353,51.59807718
1001,Santas Pharmacy,-0.114200848,51.5703536
1002,Mintons Chemist,-0.104104743,51.59069371
1003,Cross Chemist,-0.095283145,51.59796065
1004,Beauty-Chem Chemist,-0.086688033,51.60492488
1005,Savemore Pharmacy,-0.098117938,51.59369924
1006,Aucklands Pharmacy,-0.192377401,51.60264616
1007,Akhtar Pharmacy,-0.213786632,51.55581992
1008,Cootes Pharmacy,-0.16542368,51.59188496
1009,Hutt Pharmacy,0.872677188,51.8712698
1010,Derek Clarke Pharmacy,-0.276847342,51.61338359
1011,Acorn Pharmacy,-0.254310666,51.62088645
1012,Ramco Pharmacy,0.134111995,51.78373954
1013,North Weald Chemists,0.166086154,51.71479668
1014,Village Pharmacy,0.606570561,51.65084914
1015,Galleywood Pharmacy,0.470591437,51.70036524
1016,Jethro's Healthcare Pharmacy,-0.200542312,51.57395658
1017,Castle Pharmacy,-0.198060277,51.56282281
1018,C J Pharmacy,-0.226006817,51.58979848
1019,Gateway Chemist,-0.194694403,51.60022332
1020,Mango Pharmacy,-0.279878136,51.61145874
1021,Pickles Chemist,-0.190636548,51.6038288
1022,Warman Freed,-0.197724582,51.57207889
1023,Westlake Pharmacy,-0.198286364,51.57911145
1024,ProCare Pharmacy,-0.251291746,51.58832912
1025,Charles Sampsons Pharmacy,-0.176494019,51.61649955
1026,Thaxted Pharmacy,0.344554413,51.95306386
1027,Halfway Chemist,-0.473894824,51.89277865
1028,Carters Pharmacy,-0.17743867,51.61336331
1029,Sabel Chemist,-0.22012109,51.58658814
1030,Well Pharmacy,0.114850624,51.77543423
1031,Medicare Pharmacy,0.072869848,51.74862751
1032,Dees Pharmacy,0.040154321,51.77234198
1033,Leach & Burton,0.076683823,51.65642735
1034,Brookhouse Pharmacy,0.075203876,51.61959284
1035,OM Pharmacy,-0.467624573,52.13992595
1036,Oakwood Pharmacy,0.061440415,51.63911549
1037,Ashcroft Pharmacy,-0.3902548,51.89314428
1038,Janssen's Pharmacy,-0.470344358,52.12707676
1039,Fairleys Pharmacy,-0.42750583,52.15254314
1040,Lloyds Pharmacy,-0.519333887,51.90529093
1041,Royal Pharmacy,-0.412081585,51.88469552
1042,Rank Chemists,-0.431885302,51.88847684
1043,SE Morgan Pharmacy,-0.42242952,51.88047374
1044,Makan's Pharmacy,-0.449499626,51.89178538
1045,Farley Hill Chemist,-0.438807558,51.87494291
1046,Denbigh Pharmacy,-0.434862635,51.89521526
1047,W Cheeseman & Son,-0.490811438,52.03231109
1048,Avicenna Pharmacy,-0.458616859,52.12613282
1049,Herington Chemists,-0.520451178,51.8858832
1050,Kidmans Surgical Chemists,-0.452390318,52.13719148
1051,Lloyds Pharmacy,-3.263679836,54.98699471
1052,Lloyds Pharmacy,-3.257624933,54.98932936
1053,Boots,-2.555318828,55.47796504
1054,MD Pharmacy,-0.405893713,51.65467202
1055,Bridlington Old Town Pharmacy,-0.209940713,54.09339391
1056,Primary Mental Health Team,-0.034286459,51.48958605
1057,Flamborough Pharmacy,-0.123786784,54.11726841
1058,Drummond Pharmacy,-0.87285195,53.6957675
1059,Coggrave Chemist,-0.876035165,53.70476805
1060,Well Pharmacy,-0.306994984,53.75774858
1061,Well Pharmacy,-1.994433594,53.46188042
1062,Well Pharmacy,-2.011391885,53.45792504
1063,Lex Pharmacy,-0.385653459,51.61929949
1064,Tudorken Chemist,-0.396577954,51.67531676
1065,Greenfield Pharmacy,-0.415973111,51.64628397
1066,City Health Centre,-0.320744639,53.74275926
1067,Medco Pharmacy,-0.408660016,51.62892936
1068,Loomrose Pharmacy,-0.434487857,51.62951036
1069,Tudor Pharmacy,-0.491307021,51.64101756
1070,Morrisons Pharmacy,-0.44328258,53.82312101
1071,City Health Pharmacy,-0.35082892,53.74083984
1072,Elstree Pharmacy,-0.298888118,51.64362739
1073,Salepick Ltd,-0.112110665,51.70775032
1074,Ram Pharmacy,-0.089483049,51.5861582
1075,Akshar Pharmacies,-0.206695338,51.5609489
1076,Grace Pharmacy,-0.060490569,51.60257951
1077,Healthfare Chemist,-0.078296982,51.6521239
1078,Lloyds Pharmacy,-0.874501401,53.71541054
1079,Tesco in-store Pharmacy,-0.363775402,53.78851573
1080,Tesco in-store Pharmacy,-0.439149215,54.00401183
1081,Boots,-0.600634329,53.76917654
1082,Morrisons Pharmacy,-0.292201809,53.76234975
1083,Boots,-0.39483428,53.75032752
1084,Boots,-0.193352444,54.08592788
1085,Boots,-0.397304615,53.73642748
1086,Grossman Pharmacy,-0.233821679,51.56673866
1087,Richards & Curtis Pharmacy,-0.225279274,51.54266313
1088,R&C Pharmacy,-0.223993625,51.54790421
1089,Unp Pharmacy,-0.277911441,51.58556734
1090,Chana Chemist,-0.245582347,51.53596346
1091,Dave Pharmacy,-0.484140068,51.63621347
1092,Angie's Pharmacy,-0.252619867,51.5397014
1093,Greenfield Pharmacy,-0.218301598,51.53337615
1094,Brights Dispensing Chemist,-0.253384007,51.54008146
1095,Catto Chemist,-0.246196827,51.53610753
1096,Dollmeads Pharmacy,-0.21815011,51.533194
1097,Brentmead Pharmacy,-0.250642519,51.54689278
1098,Serena Dispensing Chemist,-0.251178785,51.53892457
1099,Jade Pharmacy,-0.279126008,51.58474887
1100,Clockwork Pharmacy,-0.251745712,51.55987616
1101,Laindon Health Centre,0.423486778,51.57333007
1102,Westerhope Community Mental Health Clinic,-1.690696437,54.99859597
1103,Southlands Hospital,-0.256149683,50.8407546
1104,St Monicas Hospital,-1.189327814,54.11840173
1105,Ferndale Medical Centre,-3.448414591,51.66217256
1106,Penygraig Health Clinic,-3.44663192,51.61255021
1107,CWM Gwyrdd Medical Centre,-3.474849757,51.59119103
1108,Tylorstown Health Clinic,-3.432280665,51.64297501
1109,The Fulbrook Centre - Community Mental Health Services,-1.21300221,51.74683174
1110,Br Allen Chemist,-0.601831693,52.07354801
1111,Arlesey Pharmacy,-0.265673481,52.00693976
1112,Goldharts Pharmacy,-0.464310916,52.13897473
1113,Meiklejohn Pharmacy,-0.442491878,52.11934829
1114,Lindleys Chemist,-0.480962913,52.13357984
1115,Kays Chemist,-0.47673865,52.13919884
1116,Boots,-1.324281892,54.78821278
1117,Rockliffe Pharmacy,-1.544098523,54.48362619
1118,Storehouse Pharmacy,-1.504546455,54.80976937
1119,Boots,-1.410527337,54.80001141
1120,Taylors Pharmacy,-1.705336275,54.86067461
1121,Coundon Pharmacy,-1.627940471,54.66086157
1122,Day Lewis Pharmacy,-2.08313771,54.62452196
1123,Hancock & Ainsley Pharmacy,-1.648181393,54.63264972
1124,Miller's Pharmacy,-1.599448458,54.70023139
1125,Wolsingham Pharmacy Ltd,-1.883086448,54.7305099
1126,Boots,-1.557160653,54.68921945
1127,Bowburn Pharmacy,-1.525193198,54.73404991
1128,C & H (Barton) Ltd,-0.4273269,51.96790545
1129,Krish Chemist,-0.394812983,51.9026685
1130,Well Pharmacy,0.093216961,51.77136485
1131,Theydon Bois Pharmacy Ltd,0.101595476,51.67187762
1132,Westbourne Pharmacy,-0.431994695,51.88700366
1133,Mall Pharmacy,-0.416079056,51.87914937
1134,Calverton Pharmacy,-0.447365309,51.91074397
1135,SVR Chemist Ltd,-0.167001639,51.6470218
1136,Care Chemist,-0.248130665,51.61458525
1137,Lipkin Pharmacy,-0.181014943,51.63052216
1138,Rowlands Pharmacy,0.891790754,51.91167711
1139,Prima Pharmacy,-0.214823708,51.64713632
1140,Colecross Chemist,0.463137542,51.71500964
1141,Welsh Chemist,-1.712059593,54.63584682
1142,Tow Law Pharmacy,-1.814482075,54.74416495
1143,Village Pharmacy,-1.580633376,54.63028697
1144,Britton & Robson Ltd,-1.693755653,54.71110138
1145,Rowlands Pharmacy,-1.551816407,54.53906601
1146,Boots,-1.597685215,54.85172191
1147,Lloyds Pharmacy,-1.566552491,54.53258618
1148,Shotton Pharmacy,-1.386147694,54.76323494
1149,Wards of Warboys Chemists,-0.085616351,52.40324413
1150,Lloyds Pharmacy,-0.286916356,52.22257911
1151,Milton Road Pharmacy,0.13319021,52.22016544
1152,Aqua Chemists,-0.052765645,51.62854775
1153,West Bergholt Pharmacy,0.852963945,51.91282314
1154,Linton Pharmacy,0.276377355,52.09756973
1155,Rowlands Pharmacy,-0.253218957,52.51785741
1156,JW Anderson Dispensing Chemist,-0.000778549,52.38249627
1157,Graham Young Chemist (2007) Ltd,-0.256390249,52.59403032
1158,Bridgenorth Road Pharmacy Ltd,-2.175392711,52.58684747
1159,Olton Pharmacy,-1.805840978,52.43810773
1160,Brooklands Pharmacy,-2.096232731,52.58562591
1161,Nu Cross Pharmacy,-0.276380903,51.94977032
1162,Ashwell Pharmacy,-0.152138958,52.0413513
1163,Niti Pharmacy,-0.032737544,51.68601723
1164,Village Pharmacy,0.004815197,51.78802121
1165,Village Pharmacy,0.147985309,51.81299116
1166,Bell Pharmacy,0.148654966,51.81267318
1167,Whitefield Chemist,-0.034575464,51.71004866
1168,Sheffield Pharmacy,-0.076682089,51.79599212
1169,Day Lewis Pharmacy,-2.736058574,52.06934226
1170,Rowlands Pharmacy,-2.681270809,52.0518656
1171,Garner Chemists,-0.350602513,51.58202538
1172,Rasons Pharmacy,-0.286148765,51.55308195
1173,Edgars Chemist,-0.237605538,51.54836126
1174,Paster Chemist,-0.294610849,51.57095599
1175,Vithlani Ltd,-1.49303197,52.47369895
1176,Vithlani Ltd,-1.463999207,52.48466477
1177,Alpha Pharmacy,-0.25162188,51.58717493
1178,Shri Pharmacy,-0.278222397,51.58497841
1179,Coopers Chemist,-0.233873264,51.54753179
1180,Frank Wreford Chemist,-0.249057926,51.55886491
1181,Sudbury Court Pharmacy,-0.321625913,51.56658857
1182,Monkschem Ltd,-0.274481048,51.54694005
1183,Globe Chemist,-0.238849849,51.55274123
1184,Boots,-0.312353788,51.61708172
1185,Asda Pharmacy,-0.275583543,51.56469807
1186,Craig Thomson Pharmacy,-0.22201751,51.54827894
1187,Gudkas Chemist,-0.252332333,51.56037948
1188,Tesco in-store Pharmacy,-0.255187326,51.55401044
1189,Curapharm Chemist,-0.335351163,51.55751938
1190,Superdrug Pharmacy,-0.333360495,51.58186273
1191,G Lowe Chemist,-0.305502476,51.56249918
1192,Morrisons Pharmacy,-0.284630885,51.59188837
1193,Tesco in-store Pharmacy,-0.395425126,51.59698917
1194,Nowell Pharmacy,-0.339961748,51.60350155
1195,Lloyds Pharmacy,-0.31525644,51.58159526
1196,Wellcare Pharmacy,-0.340292434,51.60472916
1197,Lloyds Pharmacy,-0.317967077,51.6008235
1198,Peace Pharmacy,-0.292348187,51.56240741
1199,Boots,-0.336391285,51.58107845
1200,Boots,-0.354946946,51.56327829
1201,Boots,-0.334771571,51.59498438
1202,Niks Pharmacy,-0.298087499,51.54161072
1203,Boots,-0.383769221,51.59467115
1204,RJ's Pharmacy,-0.297129111,51.54449233
1205,Boots,-0.277196906,51.58537701
1206,Village Pharmacy,-0.373308207,51.60823964
1207,Well Pharmacy,-0.262533183,51.57359677
1208,Superdrug Pharmacy,-0.101170087,51.37606501
1209,Sudbury Chemist,-0.322957248,51.5574625
1210,Chana Chemist,-0.315844105,51.55554419
1211,Day Lewis Pharmacy,-0.11112978,51.38798848
1212,Day Lewis Pharmacy,-0.083636451,51.34734434
1213,Cedars Pharmacy,-0.355462141,51.6013368
1214,Parade Pharmacy,-0.120659948,51.38803202
1215,Tesco in-store Pharmacy,-0.099673995,51.39910709
1216,Kings Pharmacy,-0.373218925,51.56183439
1217,Health Pharmacy,-0.308030888,51.57095241
1218,Day Lewis Pharmacy,-0.08719373,51.40983018
1219,North Harrow Pharmacy,-0.363144925,51.58821763
1220,Day Lewis Pharmacy,-0.076671508,51.39843503
1221,Gor Pharmacy,-0.381626378,51.59159329
1222,Reems Pharmacy,-0.331871695,51.61305344
1223,Shaftesbury Pharmacy,-0.354636282,51.57224455
1224,Wilkes Chemist,-0.101145784,51.4031417
1225,Saville Pharmacy Ltd,-0.362105293,51.58509454
1226,Healthways Pharmacy,-0.370858395,51.57661626
1227,Tesco in-store Pharmacy,-0.117061643,51.33695123
1228,Bachus Chemist,-0.284062299,51.58552254
1229,Superdrug Pharmacy,-0.123108851,51.4106537
1230,Churchills Pharmacy,-0.31456119,51.58322186
1231,Boots,-0.072175184,51.38091519
1232,Boots,-0.115810735,51.33874766
1233,Webbers Chemist,-0.340899473,51.58371403
1234,Lloyds Pharmacy,-0.064635573,51.32013433
1235,K L Pharmacy,-0.312882999,51.59579583
1236,Superdrug Pharmacy,-0.098602637,51.39859511
1237,Kings Pharmacy,-0.301078083,51.60648815
1238,PM Williams Pharmacy,-0.361028216,51.55862089
1239,Boots,-0.137579331,51.32166786
1240,Collins Pharmacy,-0.294880331,51.59537383
1241,Fairview Pharmacy,-0.27350091,51.60519555
1242,Goldmantle Pharmacy,-0.038612292,51.35083466
1243,Lloyds Pharmacy,0.510834961,52.34322181
1244,K L Pharmacy,-0.365617667,51.56460177
1245,Child & Adolescent Mental Health Services,1.26990855,52.63835805
1246,Day Lewis Pharmacy,-2.423756493,52.03711052
1247,Asterwell Pharmacy,-1.810167401,52.40344008
1248,Gospel Lane Pharmacy,-1.816586076,52.4329466
1249,Cheswick Green Pharmacy,-1.815475865,52.37819527
1250,Trent Health Pharmacy Ltd,-2.094492309,53.02290191
1251,Tean Pharmacy Ltd,-1.98705373,52.95370429
1252,Ridgeways Chemist,-2.138100402,53.05547077
1253,Queen Street Pharmacy,-2.198563073,53.04472493
1254,Rowlands Pharmacy,-2.190859743,52.96896786
1255,Worksop Pharmacy,-2.161062679,52.99223114
1256,Medipharma Chemist,-1.982954524,52.54504799
1257,Marston Green Pharmacy,-1.749642937,52.46760639
1258,Saydon Pharmacy,-1.758718086,52.50662371
1259,Grahams Pharmacy,-2.174232765,53.05146897
1260,Dalvair Pharmacy,-1.969611832,52.47702768
1261,Peaches Pharmacy,-2.067784266,52.47622083
1262,Kean Pharmacy,-0.219020408,51.73484943
1263,W S Low Pharmacy,-2.218307651,53.03214147
1264,Meir Hay Pharmacy,-2.121283641,52.99147842
1265,McMullen Pharmacy,-2.109444813,53.07557414
1266,Hill Top Pharmacy,-1.996923248,52.47619542
1267,Jhoots Pharmacy,-2.052103636,52.48794272
1268,RK Pharmacy,-1.967665259,52.50156972
1269,Dunstones Pharmacy Ltd,-1.991132164,52.5018884
1270,Well Pharmacy,-2.193557647,53.07272521
1271,Bradwell Pharmacy,-2.234592691,53.04068607
1272,Eaton Park Pharmacy,-2.145440182,53.01591079
1273,Boots,0.48877095,51.74705118
1274,Punni Pharmacy,-0.036049589,51.70976757
1275,J E Williamson Ltd,0.173439048,51.87701368
1276,Buntingford Pharmacy,-0.019842016,51.94757354
1277,Lex Pharmacy,-0.055998952,51.71374129
1278,Well Pharmacy,-3.094610489,51.03282835
1279,Murrays Chemist,-0.314910209,51.5835416
1280,Boots,0.990432429,52.19385142
1281,Angies Chemist,-0.382009974,51.59400217
1282,Boots,1.153658447,52.0580245
1283,Carters Chemist,-0.383300111,51.5948715
1284,Lloyds Pharmacy,1.180456239,52.04830975
1285,Leigh Pharmacy,-0.262202254,51.57508459
1286,Lloyds Pharmacy,1.121660245,52.04607887
1287,Tesco in-store Pharmacy,-2.637267707,50.942275
1288,Boots,0.624517021,52.44695506
1289,Boots,0.996581041,52.18731625
1290,Boots,1.351885666,51.9634855
1291,Tesco in-store Pharmacy,1.097996417,52.03985419
1292,Nacton Road Pharmacy,1.186947161,52.03887939
1293,Victoria Street Pharmacy,0.704045225,52.2458025
1294,Boots,1.319583466,52.09341589
1295,Wellbeing Pharmacy,1.158319133,52.05708114
1296,Fircroft Road Pharmacy,1.146070561,52.08249301
1297,Belstead Hills Pharmacy,1.117486299,52.03871556
1298,Combs Ford Pharmacy,0.996661265,52.17993958
1299,Boots,1.109279965,52.37633902
1300,Lloyds Pharmacy,1.162353616,52.0573542
1301,Well Pharmacy,1.108832355,52.37624288
1302,Boots,0.405726668,52.24420196
1303,Boots,1.563272833,52.45734135
1304,Superdrug Pharmacy,0.712605379,52.24632812
1305,Tesco in-store Pharmacy,0.396610971,52.26095032
1306,Boots,-2.592367286,51.4713951
1307,Boots,-2.598207378,51.40494399
1308,Boots,-2.852291659,51.43551686
1309,Boots,-2.525842124,51.60736341
1310,Boots,-2.413480341,51.54065997
1311,Boots,-2.508735369,51.46328996
1312,Boots,-2.498956339,51.41584809
1313,Boots,-2.612360419,51.48501356
1314,Boots,-2.589652181,51.45734589
1315,Cohens Chemist,-2.66405661,51.42910069
1316,Cohens Chemist,-2.739267172,51.41371505
1317,Boots,-2.361028537,51.38156564
1318,Boots,-2.474442081,51.49387116
1319,Boots,-2.675946168,51.48907906
1320,Boots,-2.759212656,51.43375602
1321,Bristol Pharmacy,-2.546277311,51.41197738
1322,Westfield Pharmacy,-2.465505037,51.28658539
1323,Boots,-2.833229899,51.31447056
1324,Lloyds Pharmacy,-2.914269135,51.37216962
1325,Lloyds Pharmacy,-2.620055566,51.41314773
1326,Ideal Pharmacy,-2.479001112,51.46021515
1327,Kingsdown Pharmacy,-2.602046375,51.46077163
1328,Well Pharmacy,-2.601336362,51.40762459
1329,Well Pharmacy,-2.524360236,51.47189889
1330,Well Pharmacy,-2.605709935,51.44068339
1331,Well Pharmacy,-2.528689162,51.46053564
1332,Asda Pharmacy,-0.933016484,51.42473581
1333,Minor Injuries Unit,-2.280662985,53.70081025
1334,Royal Derby Hospital,-1.514813243,52.91105013
1335,Mental Health Services - Reigate,-0.18227294,51.23636312
1336,Poole Community Health Clinic,-1.976389312,50.72189812
1337,Globe Pharmacy Ltd,-0.225541015,51.9803253
1338,Oval Pharmacy,-0.17969094,51.91831358
1339,Anderson Chemist Ltd,-0.169000955,51.89226898
1340,D P Forrest Ltd,-1.949650901,52.53866477
1341,Essington Pharmacy,-2.094257438,52.614215
1342,Trinity Pharmacy,0.160982922,51.86660875
1343,Jupiter Chemist,-0.453847796,51.76497831
1344,Manor Pharmacy,-0.342685897,51.8072092
1345,Topkins Healthcare Ltd,-0.354257656,51.81487093
1346,Village Pharmacy,-1.536766284,52.46156181
1347,Knights Rugby Pharmacy,-1.263226153,52.3717379
1348,Paddox Pharmacy,-1.230204102,52.36072742
1349,Yew Tree Pharmacy,-1.960571902,52.559831
1350,Boots,-1.974707337,52.47731475
1351,Michaels Chemist,-1.96836465,52.49170795
1352,TCP Pharma Ltd,-2.00081121,52.52275428
1353,Friar Park Pharmacy,-1.996024658,52.5520693
1354,Park Lane Pharmacy,-2.017039812,52.56066418
1355,Rowlands Pharmacy,-2.028068906,52.4868991
1356,Malchem Chemist,-1.97441453,52.49750791
1357,Vishnu Pharmacy,-1.990665477,52.47896401
1358,Ashworth Pharmacy Ltd,-1.991408841,52.48774276
1359,Tettenhall Wood Pharmacy,-2.182175013,52.59078824
1360,Penn Care Pharmacy,-2.16582462,52.56713042
1361,Poonian Pharmacy,-2.127453271,52.62769545
1362,Rexall Chemist,-2.144143266,52.56849563
1363,Bushbury Lane Pharmacy,-2.117804216,52.61601879
1364,Ingrams Chemist,-2.000103764,52.52234974
1365,Colin Harris Ltd,-1.854852605,52.16480276
1366,Harbury Chemist,-1.455511244,52.23677402
1367,Maltings Pharmacy,-0.338203672,51.75197155
1368,Markyate Pharmacy,-0.461888822,51.83709969
1369,Dickmans Pharmacy,-0.56607946,51.76101484
1370,Jade Pharmacy,-0.018621636,51.74851973
1371,Woods Pharmacy,-0.462341697,51.76535049
1372,Byron's Chemist,-0.487845014,51.74632377
1373,Jade Pharmacy,-0.226365259,51.7632676
1374,Springfield Pharmacy,-0.35500883,51.81535801
1375,Crescent Pharmacy - Jersey Farm,-0.297756663,51.7700151
1376,Ivybridge Health Centre,-3.920700261,50.39183497
1377,Lloyds Pharmacy,-2.498545601,51.41510353
1378,Lloyds Pharmacy,-2.976088783,51.33978526
1379,Lloyds Pharmacy,-2.524218143,51.60753611
1380,Lloyds Pharmacy,-2.819446696,51.38720437
1381,Chipping Sodbury Pharmacy,-2.394868626,51.53837735
1382,Lloyds Pharmacy,-2.928430805,51.35991913
1383,Day Lewis Pharmacy,-2.809982223,51.37013083
1384,Tesco in-store Pharmacy,-2.562951834,51.47347416
1385,Oldland Common Pharmacy,-2.46954234,51.44038198
1386,Jhoots Pharmacy,-2.564144884,51.49092919
1387,Tesco in-store Pharmacy,-2.975223532,51.34636561
1388,Tesco in-store Pharmacy,-2.854663114,51.42845901
1389,Cohens Chemist,-2.754465015,51.43460493
1390,Preddy Newco,-2.378251909,51.37694439
1391,Lloyds Pharmacy,-2.318741579,53.64863738
1392,Manor Pharmacy,-2.314135577,53.60903834
1393,Lloyds Pharmacy,-2.602136428,51.5036791
1394,Lloyds Pharmacy,-2.52876323,51.48038515
1395,Mile Lane Pharmacy,-2.335266392,53.58824496
1396,Lloyds Pharmacy,-2.554071342,51.45958757
1397,Lloyds Pharmacy,-2.368547741,51.38119603
1398,Tesco in-store Pharmacy,-2.547897143,51.53529856
1399,Prestwich Pharmacy Ltd,-2.283973965,53.53357945
1400,Lloyds Pharmacy,-2.658040805,51.50190405
1401,Oldham Road Pharmacy,-2.145603916,53.60146173
1402,Barash Pharmacy,-2.293379628,53.54802441
1403,Morrisons Pharmacy,-2.53207022,51.47871574
1404,Formans Chemist,-2.259340322,53.51911561
1405,Morrisons Pharmacy,-2.912983831,51.35233447
1406,Sedgely Park Pharmacy,-2.272295474,53.51907779
1407,Botterills Pharmacy,-1.474907129,52.52210315
1408,Superdrug Pharmacy,-2.566857996,51.43444873
1409,Lloyds Pharmacy,-2.553111422,51.50814305
1410,Bills Pharmacy,-2.228057611,52.44784542
1411,Jhoots Pharmacy,-2.378953597,51.35979403
1412,Millstream Pharmacy,-2.087151566,52.6428977
1413,Stoneydelph Pharmacy,-1.649535171,52.61730404
1414,Co-Chem Dispensing Chemists,-1.908980718,52.50630392
1415,Manor Pharmacy,-1.639082893,52.79621183
1416,Lister Chemist,-1.458729047,52.51812865
1417,Northwood Pharmacy Brereton,-1.923947825,52.74663707
1418,Wylde Green Pharmacy,-1.826967171,52.53521405
1419,Superdrug Pharmacy,-2.361359016,51.38156462
1420,Abbotswood Pharmacy,-2.424442863,51.52931853
1421,Xtreme Pharmacy,-1.902716083,52.50773734
1422,Bedminster Pharmacy,-2.600635563,51.44102422
1423,Health Plus Pharmacy,-1.891605037,52.51398919
1424,Superdrug Pharmacy,-2.588461927,51.45768456
1425,Boots,-2.321097858,51.2317348
1426,Tesco in-store Pharmacy,-2.652115177,51.20635816
1427,Mohammedi Pharmacy,-1.842070853,52.47553302
1428,The Coastal Idt,1.197596922,52.05281018
1429,Integrated Child Health Services,0.217409822,51.54745243
1430,Community Learning Disabilities,-1.745642822,52.46695958
1431,Department of Psychological Services,-2.927306913,54.89258438
1432,The Mulberry Centre,-1.566088319,54.53118255
1433,Hundens Lane Centre,-1.537529527,54.52439679
1434,M&M Pharmacy,-1.67625931,54.65896023
1435,M&M Pharmacy,-1.646930623,54.63397612
1436,Smith Chemist,-1.645004073,54.77866363
1437,Smith Chemist,-1.704223425,54.76993553
1438,Smith Chemist,-1.576295657,54.79925345
1439,Nash Chemist,-0.501443748,51.74992202
1440,Yogi Pharmacy,0.361863826,51.87328662
1441,Ropers Pharmacy,0.362616402,51.87273284
1442,Verulam Pharmacy,-0.360050965,51.74637071
1443,Globe Pharmacy Chiswell,-0.359876764,51.72878002
1444,Cheshunt Pharmacy,-0.050585596,51.70194355
1445,Bedwell Pharmacy,-0.189143911,51.90220385
1446,Croft Chemist,-0.023122023,51.73370422
1447,Leigh Pharmacy,0.653975287,51.54237733
1448,Day Lewis Pharmacy,0.685283487,51.54744749
1449,Leigh Pharmacy,0.655473415,51.55522221
1450,Miltons Chemist Ltd,-2.186064701,53.00345803
1451,Miltons Chemist Ltd,-2.144658696,53.03446981
1452,Millers Pharmacy,-2.132640463,52.97901803
1453,Millers Chemist,-2.335558278,53.00352537
1454,Thomas Walker Pharmacy,-0.241430541,52.5840558
1455,Granville Pharmacy,-0.240798364,52.5817807
1456,Millfield Pharmacy,-0.248152827,52.58871382
1457,Shah Pharmacy,-0.037783262,51.67471725
1458,Hutchins Chemist,0.05357484,51.64575496
1459,Coyle Chemist,-0.033421915,51.68758437
1460,Rowlands Pharmacy,0.689029511,51.74049825
1461,Lister Chemist,-0.343210692,51.63484008
1462,Triangle Healthcare (UK) Ltd,-0.355452725,51.64834746
1463,The Heath Pharmacy,-0.342481673,51.63501863
1464,D B Jones Chemist,-0.383269708,51.62824979
1465,Parade Pharmacy,-0.521918472,51.65561408
1466,Tee K Enterprise Ltd,-0.371667729,51.66537058
1467,Jade Pharmacy,-0.335590412,51.75606188
1468,Normandy Pharmacy,-0.340683448,51.76020724
1469,Metro Pharmacy Ltd,-0.28272949,51.66791648
1470,Villiage Pharmacy,-0.254210104,51.65218233
1471,Abbey Pharmacy,-0.416612413,51.70673669
1472,Quadrant Pharmacies,-0.307399597,51.76446243
1473,Meera Pharmacy,-0.323031082,51.76694346
1474,Acorn Pharmacy,-0.567398383,51.76146252
1475,Village Pharmacy,-0.431569724,51.7482128
1476,Kasli Pharmacy,-1.492128815,52.52146805
1477,Garchay's Chemist,-1.470256434,52.51787512
1478,Deakin Chemist,-1.475768508,52.52725014
1479,Magson Pharmacy,-1.424119902,52.47566002
1480,Skeltons Chemist,-1.473318983,52.47986996
1481,Ivens Dispensing Chemist,-1.53344655,52.27765957
1482,Stratwicks Ltd,-1.586105586,52.29443749
1483,Cross Chemist,-0.286897699,51.95662985
1484,Grange Pharmacy,-0.226541993,51.99136966
1485,Dogsthorpe Pharmacy,-0.231157655,52.59430527
1486,Chave & Jackson,-2.717293449,52.055819
1487,Chandos Pharmacy,-2.711340956,52.05449928
1488,St Albans Pharmacy,-0.312477666,51.74370103
1489,Codicote Pharmacy,-0.233603818,51.84842288
1490,Lloyds Pharmacy,-3.229878423,50.9772569
1491,M W Phillips Chemists,-1.839946401,52.63914542
1492,Superdrug Pharmacy,-2.632342208,50.94116874
1493,Boots,-2.408934428,51.05688878
1494,Well Pharmacy,-2.997685147,51.23810959
1495,Magrath Pharmacy,-1.663937966,52.62207976
1496,Acorn Pharmacy,-2.319273917,51.22480703
1497,Morrisons Pharmacy,-3.103937683,51.01903595
1498,Primary Care Pharmacy,-1.69547748,52.63673915
1499,Fazeley Pharmacy,-1.698844778,52.61416725
1500,Lloyds Pharmacy,-2.163575292,53.63376018
1501,Coven Pharmacy,-2.135612352,52.65761314
1502,Well Pharmacy,-2.188885134,53.62234377
1503,Hawthorne Chemist,-2.057593248,52.63106737
1504,Roots Chemist,-1.891328003,52.50800435
1505,Eason Chemist,-1.671278631,52.60917661
1506,Asda Pharmacy,-2.328692037,53.55731187
1507,Peak Pharmacy,-1.659271827,52.63594125
1508,Cohens Chemist,-2.299098608,53.59022126
1509,Chemipharm,-1.906821791,52.50307487
1510,Superdrug Pharmacy,-2.158977705,53.61762353
1511,Lloyds Pharmacy,-2.144267633,53.6239034
1512,Deu-Chem Ltd,-1.936108096,52.50344484
1513,Drugmart Pharmacy,-2.165713798,53.61992435
1514,Hamstead Pharmacy,-1.928723163,52.53166624
1515,Penn Hill Pharmacy,-2.63216374,50.94060318
1516,Tesco in-store Pharmacy,-2.290006289,53.53519725
1517,Tesco in-store Pharmacy,-2.295167377,53.5973228
1518,Touchwood Pharmacy,-1.994738845,52.58897516
1519,Alcombe Pharmacy,-3.467622826,51.19740459
1520,Whitehouse Pharmacy,-2.114160102,52.72511203
1521,Quantock Pharmacy,-3.330587464,51.18124759
1522,Tamworth Pharmacy,-1.70170648,52.64338942
1523,Stevenson Chemist,-2.031862982,52.66128255
1524,Alrewas Pharmacy,-1.749313973,52.73259793
1525,Day Lewis Pharmacy,-3.31254308,51.04241299
1526,Rowlands Pharmacy,-2.118800383,52.81418462
1527,Northwood Pharmacy Hillsprings,-1.947773571,52.76722874
1528,Milborne Port Pharmacy,-2.461338774,50.96610535
1529,Wood End Pharmacy,-1.841561729,52.51814556
1530,K V Hartshorne (Chemists) Ltd,-1.955088137,52.62025304
1531,Well Pharmacy,-1.925708183,52.63088127
1532,Rowlands Pharmacy,-1.975311311,52.58036052
1533,Harding Pharmacy,-2.031996027,52.59696638
1534,Prinja Pharmacy,-1.811741407,52.52062722
1535,Prinja Pharmacy,-1.805263784,52.52238776
1536,Gill Pharmacy,-1.93954074,52.51415363
1537,Peak Pharmacy,-1.789652862,52.56318412
1538,Star Pharmacy,-1.905730118,52.52657362
1539,Rowlands Pharmacy,-1.691555684,52.63632628
1540,Boots,-1.499946994,52.51565783
1541,Brown's Chemist,-1.537446204,52.52392909
1542,Lloyds Pharmacy,-1.517879152,52.53736746
1543,Boots,-1.472431773,52.47981476
1544,Lloyds Pharmacy,-1.435627733,52.506127
1545,Asda Pharmacy,-1.466574367,52.52694837
1546,Lloyds Pharmacy,-1.935138773,52.68209835
1547,Jhoots Pharmacy,-1.906408172,52.678006
1548,Lloyds Pharmacy,-1.933600234,52.68221347
1549,Kelso Hospital,-2.435539879,55.60281752
1550,The Knoll Hospital,-2.341409064,55.77260359
1551,St Lukes Hospital,-1.762296272,53.7829986
1552,Beckenham Beacon,-0.033208655,51.40523153
1553,Manchester Royal Eye Hospital,-2.224708331,53.46142607
1554,Joseph Palmer Centre,-0.372643,51.40319772
1555,Bridge Centre,-3.134769364,51.73250467
1556,Community Nurses Department,-0.47333442,53.22184682
1557,Manchester Drug Service South,-2.262038778,53.37960716
1558,Mental Health Services,-2.320379338,53.50543992
1559,Allcures Pharmacy,0.463095,51.56372503
1560,Allcures Pharmacy,0.467168355,51.57536932
1561,Longthornes Pharmacy,0.678127253,51.54594732
1562,Longthornes Chemist,0.692419397,51.54419906
1563,Parkview Pharmacy,-0.128905625,51.64902059
1564,Vinods Pharmacy,0.736165754,51.54754843
1565,Rowlands Pharmacy,0.668344704,51.54367909
1566,Earls Hall Pharmacy,0.700634179,51.55625951
1567,Kalsons Chemist,0.695943726,51.55794131
1568,Petter Pharmacy,-0.124193036,51.58000977
1569,Rowlands Pharmacy,1.130522076,51.80426424
1570,Rowlands Pharmacy,1.117372545,51.78106722
1571,J & L C Clark Chemists,-1.524768343,54.78628743
1572,Howells & Harrison Pharmacy,0.73348957,51.53587405
1573,Thorpe Bay Pharmacy,0.760534273,51.53571713
1574,Woodlands Chemist,-0.43549296,51.89535312
1575,Bishopscote Chemist,-0.436744304,51.89803307
1576,Avicenna Pharmacy,0.518159244,51.61162601
1577,Mountford Chemist,-0.174260205,51.65019855
1578,Greenfield Pharmacy,-0.186535004,51.64630448
1579,Rowlands Pharmacy,-0.469206517,51.91484609
1580,Eastware Pharmacy,-0.029701972,51.81079769
1581,St Andrews Pharmacy,-0.082824098,51.79649709
1582,Potter Street Pharmacy,0.133304237,51.75770292
1583,Rowlands Pharmacy,-1.290306781,52.33746342
1584,Abbott Pharmacy,-0.147950453,51.60005437
1585,Boots,-0.47207847,51.75080281
1586,Lloyds Pharmacy,-0.339817656,51.74272364
1587,Lloyds Pharmacy,-0.465559026,51.73631745
1588,Boots,-0.204579118,51.80120254
1589,Boots,-0.023287565,52.04701269
1590,Boots,-0.142216191,51.59142907
1591,Boots,-0.450300758,51.71322842
1592,Boots,0.501459163,51.71762609
1593,Boots,-0.416892256,51.70618296
1594,Boots,-0.198544159,51.79669064
1595,Boots,-0.448977493,51.74217379
1596,Lloyds Pharmacy,-0.662885735,51.79359225
1597,Russell Avenue Pharmacy,-0.340075781,51.75425498
1598,West Street Pharmacy,-0.521873974,51.88591906
1599,Mayfield Pharmacy,-0.505815332,51.87810936
1600,Jardines Pharmacy,-0.462591239,51.90078692
1601,Well Pharmacy,-0.188007448,51.88510889
1602,Asif's New Pharmacy,0.609933827,51.55357339
1603,Well Pharmacy,-0.299043728,51.72651244
1604,Melbourne Pharmacy,0.452754,51.7489148
1605,Dips Chemist,0.372148858,51.48842281
1606,Tesco in-store Pharmacy,-0.269324413,51.65569359
1607,Riverview Pharmacy,0.366503849,51.481783
1608,Morrisons Pharmacy,-0.311188503,51.75146957
1609,Hubert Figg Pharmacy,-0.55985524,51.75898754
1610,Asda Pharmacy,-0.389943743,51.67947743
1611,Superdrug Pharmacy,-0.472940868,51.75053257
1612,Lloyds Pharmacy,-0.287105919,51.7159622
1613,BRO Hafren CMHT,-3.316891024,52.51635079
1614,Lloyds Pharmacy,-2.118091891,52.80461155
1615,Dean & Smedley Ltd,-1.625845001,52.83355818
1616,Cornwells Chemist,-2.13258884,52.82218048
1617,Rugeley Pharmacy,-1.935939546,52.75885102
1618,Lloyds Pharmacy,-1.938841384,52.7542562
1619,Lloyds Pharmacy,-2.202847136,52.59536636
1620,Lloyds Pharmacy,-2.188987272,52.62469147
1621,Lloyds Pharmacy,-2.11911286,52.78743163
1622,Primary Care Pharmacy,-1.467451535,52.51949872
1623,Well Pharmacy,-1.47187468,52.47899688
1624,Boots,-1.466810347,52.52255243
1625,Lloyds Pharmacy,-1.444849698,52.51438748
1626,Boots,-1.864770519,52.8986409
1627,Boots,-1.826283724,52.68344179
1628,Boots,-1.935320642,52.7595258
1629,Boots,-2.117696246,52.8069555
1630,Boots,-2.146543447,52.9017012
1631,Well Pharmacy,-2.023214251,52.68972786
1632,Dean & Smedley Pharmacy,-1.684505926,52.85820667
1633,Dean & Smedley Chemist,-1.638535467,52.81574437
1634,Medisure Pharmacy,-1.982782928,52.57707155
1635,Morrisons Pharmacy,-1.976535738,52.58682623
1636,Lloyds Pharmacy,-1.977323784,52.58708349
1637,Superdrug Pharmacy,-2.116196352,52.80579105
1638,Tesco in-store Pharmacy,-1.821680973,52.68509895
1639,Well Pharmacy,-2.129266552,52.80130974
1640,Well Pharmacy,-1.696993858,52.63412882
1641,Medisure Pharmacy,-1.978796588,52.57519924
1642,Lloyds Pharmacy,-1.935704651,52.64916049
1643,Touchwood Pharmacy,-1.967523586,52.62878204
1644,Lloyds Pharmacy,-1.795254779,52.51767636
1645,Boots,-1.838017434,52.52499018
1646,Boots,-2.796126591,50.88396323
1647,Boots,-1.823414224,52.50944285
1648,Well Pharmacy,-1.985088088,52.59424237
1649,Boots,-1.848126295,52.59024198
1650,Lloyds Pharmacy,-1.828117786,52.53503593
1651,Lloyds Pharmacy,-1.80079102,52.54026123
1652,Vesey Pharma,-1.823324326,52.5576384
1653,Well Pharmacy,-2.038269516,52.56563864
1654,Boots,-2.055759622,52.58471793
1655,Well Pharmacy,-1.919396679,52.53468627
1656,Mw Phillips Chemist,-1.8863636,52.54147986
1657,Boots,-1.902593795,52.51776099
1658,Asda Pharmacy,-1.779719512,52.53268502
1659,Boots,-1.827256631,52.53658992
1660,Boots,-1.823707538,52.55771089
1661,M W Phillips Chemist,-1.885830467,52.54237833
1662,Phillips Chemist,-1.864370715,52.54427058
1663,M W Phillips Chemists,-1.89501735,52.54391419
1664,Boots,-1.883813779,52.55229219
1665,Superdrug Pharmacy,-1.837286073,52.52467183
1666,Mw Phillips Chemist,-1.837201712,52.51558112
1667,Lloyds Pharmacy,-1.906801095,52.53593473
1668,Boots,-3.477286714,51.2056811
1669,Boots,-2.997300313,51.23488738
1670,Superdrug Pharmacy,-3.002332808,51.12827453
1671,Boots,-2.655327041,51.2034115
1672,Boots,-3.227207331,50.97859794
1673,Boots,-2.965704706,50.87292604
1674,Boots,-2.909672766,50.92656767
1675,Victoria Community Hospital,-1.99591805,50.80219537
1676,Swanage Community Hospital,-1.961213428,50.6055098
1677,Delphwood,-1.966525631,50.74755175
1678,Annan Hospital,-3.247086281,54.98863086
1679,Queen Victoria Memorial Hospital,-0.222867414,51.82795731
1680,Ryegate Children's Centre,-1.512686671,53.37757239
1681,Mental Health Services,-1.158688007,52.96787227
1682,Dartmouth Clinic,-3.579580387,50.35271941
1683,Totnes Community Hospital,-3.684189001,50.43277173
1684,Wolverton Health Centre,-0.814910789,52.05418099
1685,Stony Stratford Health Centre,-0.853194098,52.0562653
1686,Newport Pagnell Medical Centre,-0.725297513,52.0864654
1687,Community Nurses Office,-0.702509673,52.15655397
1688,Sovereign Medical Centre,-0.746022755,52.06093714
1689,Central Milton Keynes Medical Centre,-0.775059181,52.04194754
1690,Fishermead Health Centre,-0.747516494,52.0362094
1691,Watling Vale Medical Centre,-0.78856891,52.02546259
1692,Hilltops Medical Centre,-0.797879588,52.03589774
1693,Community Nurses Office,-0.69777442,52.04376589
1694,Water Eaton Health Centre,-0.725808327,51.97927806
1695,Central Bletchey Community Nurses Office,-0.723215527,51.99621647
1696,City South Lmht,-1.129498194,52.9577827
1697,Leominster Community Hospital,-2.738846873,52.22329694
1698,Ross Community Hospital,-2.583408388,51.91257448
1699,Bromyard Community Hospital,-2.506793043,52.18631426
1700,Wye Valley Community Nursing,-3.025537157,52.20414833
1701,DASH (Drug Service Herefordshire),-2.710021632,52.05885518
1702,Lloyds Pharmacy,-1.519100455,52.30269766
1703,Stanley Pharmacy,-1.699927998,54.86942312
1704,Lloyds Pharmacy,-1.531157341,52.29347979
1705,Duggal Chemist,-2.046827904,52.52597229
1706,Duggal Chemist,-2.056774291,52.5238463
1707,Boots,-1.575664224,52.34218284
1708,Wilyman Chemist,-0.449033886,51.653757
1709,RO Pharmacy,-0.520044259,51.65412479
1710,Boots,-1.578443333,52.34244001
1711,Boots,-1.535196598,52.292238
1712,Lillington Pharmacy,-1.522373305,52.30287635
1713,Woodhall Pharmacy,-0.436009776,51.78046004
1714,Lloyds Pharmacy,-1.54678122,52.27855477
1715,Superdrug Pharmacy,-1.536046931,52.29055835
1716,Grove Hill Pharmacy,-0.457263203,51.77276513
1717,Tesco in-store Pharmacy,-1.563450194,52.28610287
1718,Birk & Nagra Pharmacy,-1.529575019,52.28284064
1719,Birk & Nagra Pharmacy,-1.53236684,52.28471632
1720,Landy's Chemist,-0.200214255,51.58459938
1721,Birk & Nagra Pharmacy,-1.516647064,52.28273992
1722,Birk & Nagra Pharmacy,-1.531200598,52.28159744
1723,Zaxgate Ltd,-0.219887581,51.58694878
1724,Birk & Nagra Pharmacy,-1.528912574,52.26899646
1725,Asda Pharmacy,0.463489932,51.56926827
1726,Lloyds Pharmacy,-0.512407525,51.88877778
1727,Lloyds Pharmacy,-0.243948159,51.58181966
1728,Lloyds Pharmacy,-1.870689443,52.21410657
1729,Henley Pharmacy,-1.779910317,52.29244892
1730,Lloyds Pharmacy,-0.18138427,52.33175704
1731,Lloyds Pharmacy,-2.724839758,52.05475505
1732,Tesco in-store Pharmacy,-1.714449185,52.20274716
1733,Lloyds Pharmacy,-1.819051479,52.40194366
1734,Lloyds Pharmacy,-0.21229097,52.58747297
1735,Boots,-1.705416255,52.19239498
1736,Lloyds Pharmacy,-0.423236435,51.88274147
1737,Lloyds Pharmacy,-1.5468975,52.5771581
1738,Tesco in-store Pharmacy,-2.244796649,53.0895023
1739,Lloyds Pharmacy,-1.706836724,52.49871238
1740,Tesco in-store Pharmacy,-2.210311513,52.99466211
1741,Tesco in-store Pharmacy,-2.740002588,52.04229124
1742,Lloyds Pharmacy,-1.706398648,52.49813594
1743,Tesco in-store Pharmacy,-2.71942005,52.0571007
1744,Tesco in-store Pharmacy,0.501964716,51.56272523
1745,Lloyds Pharmacy,-1.613915614,52.60316029
1746,Tesco in-store Pharmacy,0.275563864,51.48903328
1747,Lloyds Pharmacy,-1.681376311,52.5648124
1748,Tesco in-store Pharmacy,-0.263779687,52.5406808
1749,Lloyds Pharmacy,-1.615149778,52.61903132
1750,Tesco in-store Pharmacy,0.47761328,51.73369763
1751,Lloyds Pharmacy,-1.742430914,52.5179437
1752,Tesco in-store Pharmacy,0.919714069,51.91015086
1753,Lloyds Pharmacy,-1.254044775,52.37058441
1754,Tesco in-store Pharmacy,-0.49777354,52.00290822
1755,Tesco in-store Pharmacy,-0.669463178,51.91839767
1756,Bilton Pharmacy,-1.291527273,52.3590907
1757,Tesco in-store Pharmacy,0.154323077,52.23905118
1758,Boots,-1.263616611,52.37298999
1759,Tesco in-store Pharmacy,-0.18005537,52.35279333
1760,Great Bridge Pharmacy,-2.032179507,52.5295462
1761,Tesco in-store Pharmacy,-0.269969611,52.21034639
1762,Tesco in-store Pharmacy,-0.220402675,51.77633285
1763,New Street Pharmacy,-2.011883624,52.53683182
1764,Tesco in-store Pharmacy,0.135469991,51.87505994
1765,Tesco in-store Pharmacy,-0.031745211,51.81151532
1766,Superdrug Pharmacy,-1.993207032,52.5171534
1767,Tesco in-store Pharmacy,-0.186302429,51.9850812
1768,Tesco in-store Pharmacy,-0.204531753,51.90384777
1769,Lloyds Pharmacy,-2.03996528,52.4744068
1770,Boots,-2.126972538,52.5846907
1771,Cornwells Chemist,-2.26805857,53.015594
1772,Cornwells Chemist,-2.228937411,53.01204869
1773,Murrays Healthcare,-2.067885867,52.47527683
1774,Murrays Healthcare,-2.071179213,52.52884136
1775,Lloyds Pharmacy,-2.974106695,51.21911898
1776,Wedmore Pharmacy,-2.809358988,51.22819331
1777,Lloyds Pharmacy,-2.305318216,51.24091283
1778,Boots,-2.646352102,51.208809
1779,Boots,-3.103927724,51.01405506
1780,Dulverton Pharmacy,-3.550718633,51.03986762
1781,Day Lewis Pharmacy,-2.664519129,50.94988353
1782,Minster Pharmacy,-2.910924173,50.92653094
1783,Lloyds Pharmacy,-3.318483052,51.1613782
1784,Porlock Pharmacy,-3.594380882,51.20919579
1785,Evercreech Pharmacy,-2.50529618,51.14795292
1786,Village Rise Pharmacy,1.73374361,52.49550392
1787,Delta Pharmacy,1.174317891,52.05351293
1788,Holly Pharmacy,1.715376722,52.47816508
1789,Boots,0.824565568,52.57115232
1790,Ampthill Health Centre,-0.493276661,52.02619252
1791,Dermacia Pharmacy,-0.102940637,51.54307772
1792,Savemain Pharmacy,-0.096695111,51.53999104
1793,St Peter's Pharmacy,-0.098428126,51.53474054
1794,Apteka Chemist,-0.110094996,51.56253603
1795,Highbury Pharmacy,-0.098207512,51.55352232
1796,K K P R Ltd,-0.111027469,51.55604949
1797,Turnbulls Chemists,-0.097052007,51.54007777
1798,C&H Chemist,-0.098385242,51.56067424
1799,Chemitex Pharmacy,-0.117982336,51.56334624
1800,Wellcare Pharmacy,-0.122221914,51.55989811
1801,Medicine Box,-0.139350102,51.53506403
1802,P Edwards Chemists Ltd,-0.116671284,51.54025049
1803,Pledger Pharmacy,1.240103242,52.70267149
1804,Woodgrove Pharmacy,1.291648686,52.6514528
1805,Jai Chemist,0.3948596,52.75569661
1806,The Clock Pharmacy,0.421196534,52.75731975
1807,Lloyds Pharmacy,0.436905984,52.78506459
1808,Coastal Pharmacy,1.43397782,52.87681851
1809,Boots,0.98446037,52.57990755
1810,Costessey Pharmacy,1.235016804,52.64732991
1811,Natural Health Pharmacy,1.294292805,52.61425353
1812,Natural Health Pharmacy,1.279680322,52.60596254
1813,East Harling Pharmacy,0.931353519,52.44059236
1814,Hunt's Pharmacy,1.327871349,52.63713843
1815,Kessingland Pharmacy,1.71067961,52.42045777
1816,Mattishall Pharmacy,1.033376627,52.65903462
1817,Hurn Chemist,1.276445244,52.62356272
1818,Heathway Pharmacy,-1.790624617,52.49840465
1819,Boots,-1.866145847,52.4529789
1820,Shah Pharmacy,-1.866957218,52.4542573
1821,Washwood Heath Pharmacy,-1.818826342,52.49286837
1822,Care Pharmacy,-1.831288577,52.48849068
1823,Richyal Chemist,-1.849701456,52.48855681
1824,Solomons Dispensing Chemist,-1.851432896,52.48912896
1825,Nechells Pharmacy,-1.868018671,52.4979857
1826,Medicare Chemist,-1.84956426,52.46700229
1827,Pauls Pharmacy,-1.876461043,52.48673039
1828,Villa Pharmacy,-1.894875449,52.50258842
1829,A R K Healthcare Ltd,-1.864522683,52.45156653
1830,Faqir Chemist,-1.879195385,52.45183051
1831,The Pharmacy Practice,-1.871503452,52.45962035
1832,Denbigh Infirmary,-3.409877049,53.18602363
1833,Penley Hospital,-2.8701656,52.95405964
1834,Chirk Community Hospital,-3.052088806,52.94349953
1835,Mold Community Hospital,-3.147789209,53.16976849
1836,Glan Traeth Day Hospital,-3.481407174,53.32631951
1837,Clay Cross Community Hospital,-1.407226518,53.16793316
1838,Ilkeston Community Hospital,-1.320817724,52.98809211
1839,Trengweath,-5.230139308,50.23183862
1840,Opal Centre,-1.148096242,53.49730829
1841,Portland Community Hospital,-2.444822109,50.5658165
1842,Westhaven Community Hospital,-2.481214212,50.61489907
1843,Violet Hill Day Hospital,0.990350254,52.19149452
1844,School of Tropical Medicine,-2.969133448,53.40856504
1845,Green Croft House North,-3.263085705,54.98599165
1846,Vale of Glamorgan CMHT,-3.263140307,51.40646644
1847,Jeanette Wallace House,-0.098099696,51.37051164
1848,Coedpoeth Community Nurses Office,-3.0653489,53.05245212
1849,Ruthin Clinic,-3.309509854,53.11587929
1850,Shirley Health Centre,-1.429068004,50.9169232
1851,Community Mental Health Team for Older People,0.325576311,51.47935553
1852,Lloyds Pharmacy,-2.014128495,52.50372178
1853,Well Pharmacy,-1.932759628,52.54504822
1854,M W Phillips Chemists,-2.03849965,52.4752092
1855,Lloyds Pharmacy,-1.983972091,52.54476046
1856,Jhoots Pharmacy,-2.043734332,52.48342419
1857,Regent Street Pharmacy,-1.967899861,52.49493342
1858,Tesco in-store Pharmacy,-0.037444226,51.71800989
1859,Lloyds Pharmacy,-1.972176332,52.49630276
1860,Lloyds Pharmacy,-1.968951005,52.47457325
1861,Superdrug Pharmacy,-2.077200864,52.56496331
1862,Morrisons Pharmacy,-2.146123993,52.62232496
1863,Asda Pharmacy,-2.128755195,52.59264744
1864,Boots,-2.15592777,52.5765823
1865,Murrays Healthcare,-2.100714372,52.5512271
1866,Newbridge Pharmacy,-2.159531992,52.59665982
1867,Lloyds Pharmacy,-2.08222906,52.59983766
1868,Lloyds Pharmacy,-2.159502475,52.60072055
1869,Boots,-2.041753579,52.47547778
1870,Asda Pharmacy,-2.056418245,52.54494571
1871,Rivermead Pharmacy,0.473028754,51.74106151
1872,Brandon Pharmacy,-1.62446204,54.75564745
1873,Lloyds Pharmacy,-0.396848127,51.90229791
1874,Lloyds Pharmacy,-1.336022894,54.83756027
1875,Day Lewis Pharmacy,0.47456069,51.71581272
1876,Rosehill Pharmacy,-0.66256492,51.91644659
1877,Lloyds Pharmacy,-1.698053662,54.87002955
1878,Smith Pharmacy,-0.49588311,51.90173143
1879,Lloyds Pharmacy,-0.465273388,52.15433534
1880,Lloyds Pharmacy,-0.661798915,51.91678046
1881,Lloyds Pharmacy,-0.49453843,52.11921505
1882,J&J Pharmacy,-1.367654328,54.83497018
1883,Sedgefield Pharmacy,-1.448710884,54.65372646
1884,Lloyds Pharmacy,0.113124622,51.70069249
1885,Britannia Pharmacy,-0.287220785,52.12937851
1886,Atkinsons Chemist,-0.096053063,51.63098431
1887,Mansons Pharmacy,-0.072760169,51.57847495
1888,Britannia Pharmacy,-0.287001759,52.12937533
1889,Britannia Pharmacy,-0.437939854,51.91988242
1890,Lloyds Pharmacy,-0.159911404,51.61257371
1891,Lloyds Pharmacy,0.340972779,51.48892358
1892,Audley Mills Pharmacy,0.606327289,51.58485193
1893,Boots,-1.324876878,54.78824934
1894,Shelleys Pharmacy,-1.84017031,52.47589906
1895,Hustans Pharmacy,-1.850245801,52.47438393
1896,Evergreen Dispensing Chemist,-1.854624848,52.47687061
1897,Hallmark Chemists,-1.887513346,52.50401916
1898,Heartlands Pharmacy,-1.870240979,52.47858784
1899,Marks Chemist,-1.932086944,52.5030111
1900,Wards Chemists,-1.924085755,52.52123779
1901,Pike Pharmacy,-1.900734009,52.50465216
1902,Healthstop Pharmacy,-1.919648689,52.50555647
1903,Your Local Pharmacy,-1.837631814,52.50962589
1904,L M Williams (Chislehurst) Pharmacy,0.065647985,51.41939399
1905,Hamlet Pharmacy,-0.072494826,51.41639682
1906,Lloyds Pharmacy,0.029267605,51.31364351
1907,Elmers Pharmacy,-0.037569444,51.39169856
1908,Osbon Pharmacy,0.114785042,51.39394877
1909,Day Lewis Pharmacy,0.035403652,51.40553463
1910,Langley Pharmacy,-0.018631628,51.39985106
1911,Cray Hill Chemist,0.105661919,51.40344778
1912,Caxton Pharmacy,0.015729639,51.40609055
1913,Lotus Pharmacy,-0.042467987,51.39883983
1914,Peters Chemist,-0.016825795,51.40703274
1915,Gordon Davie Pharmacy,0.04958556,51.3898826
1916,Coney Hall Pharmacy,0.001226078,51.36929762
1917,Farncray Ltd,0.097636083,51.37384302
1918,Bishops Lydeard Pharmacy,-3.187915068,51.05760864
1919,Queen Street Pharmacy,1.679700243,52.32531721
1920,Green Cross Pharmacy,1.097354094,52.07569792
1921,Spring Road Pharmacy,1.184035229,52.05924864
1922,Day Lewis Pharmacy,1.132724316,52.072236
1923,Eye Pharmacy,1.146579876,52.32092451
1924,Boots,0.623815372,52.44849575
1925,Welch Pharmacy,1.136899041,52.03915327
1926,Barbour Pharmacy,1.138064758,52.06285711
1927,Martlesham Pharmacy,1.272455856,52.06123153
1928,Bhogal Dispensing Chemist,-2.564638313,51.46791733
1929,Ellacombe Pharmacy,-2.494883114,51.43652908
1930,Ashgrove Pharmacy,-2.582858297,51.48102782
1931,Well Pharmacy,-2.352984713,51.39499674
1932,Kellaway Pharmacy,-2.604060542,51.48118304
1933,A H Hale Ltd,-2.356716999,51.38330525
1934,Banwell Village Pharmacy,-2.870783894,51.32856913
1935,Avicenna Pharmacy,-2.616821378,51.41856882
1936,Northview Pharmacy,-2.613740982,51.47950347
1937,Timsbury Pharmacy,-2.476799406,51.32622087
1938,Klub Pharmacy,-0.105150006,51.42244187
1939,Widcombe Pharmacy,-2.354608869,51.37641503
1940,Peasedown Pharmacy,-2.427951492,51.31524272
1941,Larkhall Pharmacy,-2.345021058,51.39716859
1942,Wrington Pharmacy,-2.762555024,51.36154727
1943,"Hawes, Whiston & Co Chemists",-2.368009647,51.38844952
1944,Jhoots Pharmacy,-2.575796977,51.53203584
1945,Selcan,-2.564819498,51.46859982
1946,Zep Pharm Ltd,-0.099981304,51.40383325
1947,Norbury Pharmacy,-0.118284937,51.40206028
1948,Castle Hill Hospital,-0.444984592,53.77673313
1949,Sidmouth Hospital,-3.239655197,50.68161004
1950,Ottery St Mary Hospital,-3.291574365,50.75011335
1951,Glyn Deri Day Hospital,-3.026283871,51.69171188
1952,Women & Children's Hospital,-1.11254137,53.53021798
1953,York House Mental Health Unit,-2.179703512,53.42446609
1954,Community Nurses Office,-3.058100825,51.7230931
1955,New Park Health Clinic,-3.382681278,51.53625651
1956,Julia Engwell Health Centre,0.125595374,51.53893445
1957,Seven Kings Health Centre,0.096829058,51.56346283
1958,Cranham Health Centre,0.265762808,51.56847843
1959,Harold Hill Health Centre,0.224902128,51.6062688
1960,Child & Family Consultation Service,0.188463812,51.582739
1961,Five Elms Clinic,0.142668607,51.55377311
1962,Claybrook Centre,-0.218015183,51.48715973
1963,Community Mental Health,-2.410648404,53.52593603
1964,Audrey House,-1.489897897,52.92440294
1965,Braintree Pharmacy,0.551997694,51.87853147
1966,Lloyds Pharmacy,-0.334536685,52.03817223
1967,Mersea Road Pharmacy,0.907668245,51.86280106
1968,Lloyds Pharmacy,0.64147259,51.80062629
1969,Lloyds Pharmacy,1.150758829,51.78864002
1970,Pyramid Pharmacy,-0.047708276,51.65799582
1971,Taylors Pharmacy,-2.711805741,52.05511324
1972,Fitzwilliam Pharmacy,0.12016449,52.20027635
1973,Browns Pharmacy,-1.750627789,52.49392214
1974,Lloyds Pharmacy,0.151913629,52.22527456
1975,Jhoots Pharmacy,-1.826391873,52.41165495
1976,Lloyds Pharmacy,0.049014988,52.45573171
1977,Browns Pharmacy,-1.797891996,52.42965279
1978,Lloyds Pharmacy,0.051851825,52.45742237
1979,Morrisons Pharmacy,-2.192655957,53.03125996
1980,Lloyds Pharmacy,-0.188033673,52.33399825
1981,Well Pharmacy,-2.098941463,52.98997908
1982,Lloyds Pharmacy,-2.224976352,52.98352638
1983,Longton Pharmacy,-2.136962439,52.98888146
1984,Trentham Road Pharmacy,-2.134135989,52.98341836
1985,Westminster House,-1.129801269,52.97976423
1986,Lloyds Pharmacy,-2.170453633,53.02759037
1987,Lloyds Pharmacy,-2.019631323,53.10589808
1988,Lloyds Pharmacy,-2.144939452,53.02437918
1989,Lloyds Pharmacy,-2.171222249,53.02214185
1990,Kidsgrove Pharmacy,-2.238053929,53.08684714
1991,Sneyd Green Pharmacy,-2.167252783,53.04036847
1992,Cohens Chemist,-2.584009823,51.91142065
1993,Hereford Pharmacy,-2.718233943,52.05426056
1994,Lloyds Pharmacy,-1.822682052,52.40558115
1995,St Mary's Pharmacy,-1.700641841,52.42606655
1996,Lloyds Pharmacy,-1.649310015,52.43810713
1997,Lloyds Pharmacy,-1.643861732,52.39495636
1998,Lloyds Pharmacy,-2.109997214,52.59201373
1999,Church Pharmacy,-2.075849701,52.56591352
2000,Boots,-1.745709671,54.71521143
2001,Lloyds Pharmacy,-2.114966406,52.62255893
2002,Lloyds Pharmacy,-0.073412176,52.32363359
2003,Boots,-1.923484961,54.54336708
2004,Lloyds Pharmacy,-0.110168198,52.45374765
2005,Boots,-1.572848722,54.61926893
2006,Lloyds Pharmacy,-0.107061348,52.44897755
2007,Boots,-1.57421589,54.85743552
2008,City Pharmacy,-0.244070975,52.57708208
2009,Boots,-1.574935691,54.77704652
2010,Boots,-1.332867559,54.83723744
2011,Boots,-1.554419634,54.52709603
2012,Boots,-1.555754968,54.52506989
2013,Barkers Chemist,-0.104962352,51.37376132
2014,Orion Pharmacy,-0.116049489,51.3388774
2015,Harris Chemist,-0.038274756,51.3523488
2016,Fishers Chemist,-0.067277284,51.3931366
2017,Priory Pharmacy,0.107184625,51.38277255
2018,Lloyd George Pharmacy,-0.097693507,51.38516321
2019,Lloyds Pharmacy,-0.086969819,51.39865757
2020,Croy-Chem Pharmacy Ltd,-0.087745679,51.38039699
2021,Mona Pharmacy,-0.04725361,51.37490894
2022,St Clare Chemist,-0.096295194,51.37452907
2023,Larchwood Pharmacy,-0.074197687,51.37997724
2024,A-Z Pharmacy,-0.103000336,51.37881945
2025,Allcorn Chemists,-0.092832982,51.38177487
2026,Boots,-0.106500579,51.53305463
2027,Superdrug Pharmacy,-0.107549679,51.53348521
2028,Clockwork Pharmacy,-0.117213766,51.54003439
2029,Superdrug Pharmacy,-0.119306808,51.55831101
2030,Well Pharmacy,-0.134531376,51.56510325
2031,Boots,-0.11786349,51.55713953
2032,Clockwork Pharmacy,-0.117075449,51.53604849
2033,Well Pharmacy,0.423188012,52.75731144
2034,Bradwell Pharmacy,1.701402669,52.57547725
2035,Magdalen Pharmacy,1.71453879,52.5738601
2036,Well Pharmacy,1.727989411,52.64754468
2037,Superdrug Pharmacy,1.292787742,52.62588822
2038,Boots,1.17437303,52.60073103
2039,Lloyds Pharmacy,1.361648202,52.63054488
2040,Boots,0.395288186,52.7539193
2041,Lloyds Pharmacy,1.293358578,52.62207702
2042,Boots,1.121649805,52.57217687
2043,Boots,1.237178114,52.56085199
2044,Day Lewis Pharmacy,1.72560294,52.57097553
2045,Well Pharmacy,0.862798214,52.83611128
2046,Superdrug Pharmacy,1.72715758,52.57815836
2047,Lloyds Pharmacy,1.210507085,52.9423
2048,Lloyds Pharmacy,1.277170135,52.63503647
2049,Lloyds Pharmacy,1.017132029,52.51824072
2050,Boots,1.298910357,52.6435908
2051,Boots,1.386818165,52.82110676
2052,Boots,1.481549023,52.53459172
2053,Lloyds Pharmacy,1.263047972,52.66414299
2054,Lloyds Pharmacy,1.251058195,52.79476065
2055,Lloyds Pharmacy,1.288730133,52.63464391
2056,Lloyds Pharmacy,1.241294989,52.63166238
2057,Lloyds Pharmacy,1.198041416,52.68647537
2058,Lloyds Pharmacy,1.30659431,52.66920346
2059,Boots,1.727670388,52.60783394
2060,Well Pharmacy,1.112699425,52.57043416
2061,Boots,1.296036875,52.62664319
2062,Boots,1.294802007,52.63628547
2063,Boots,1.295285946,52.62923628
2064,Well Pharmacy,1.387025465,52.82111882
2065,Boots,1.2996914,52.9313913
2066,Boots,1.216986151,52.63718198
2067,Boots,0.848026576,52.82985559
2068,Boots,1.726986484,52.57835174
2069,Boots,0.940881236,52.68168246
2070,Lloyds Pharmacy,1.300398531,52.93104159
2071,Lloyds Pharmacy,1.22427211,52.6767168
2072,Lloyds Pharmacy,1.017508728,52.51900451
2073,Superdrug Pharmacy,-3.101109931,51.01401781
2074,The Well Being Centre,-0.742275289,51.31432125
2075,Lascelles Neurology Rehabilitation Unit,-1.52291278,53.99694484
2076,Seaforth Family Health Clinic,-3.007083255,53.46583834
2077,Community Mental Health Services,-1.653707183,50.75016539
2078,Northover Mental Health Resource & Advice Centre,0.010835858,51.43258383
2079,Stretford Memorial Hospital,-2.274100134,53.45288267
2080,Brent Older People Community Mental Health Team,-0.235820958,51.54117652
2081,Well Pharmacy,-2.13176747,52.79451093
2082,Lloyds Pharmacy,-1.761250552,52.5014776
2083,Superdrug Pharmacy,-2.996443771,53.04690954
2084,Boots,-1.693378192,52.6326506
2085,Lloyds Pharmacy,-1.765830767,52.42117003
2086,Rowlands Pharmacy,-2.989340412,53.04548558
2087,Boots,-3.310468152,53.1140798
2088,Tesco in-store Pharmacy,-2.089066594,52.97280047
2089,Boots,-3.490223901,53.32122947
2090,Lloyds Pharmacy,-1.996644394,52.46363642
2091,Jhoots Pharmacy,-1.934688849,52.54673039
2092,Well Pharmacy,-2.020766773,53.10639228
2093,Boots,-3.419846358,53.18327303
2094,Well Pharmacy,-2.02239449,53.10557398
2095,Well Pharmacy,-2.103441452,52.97738138
2096,Well Pharmacy,-2.209997335,53.06276437
2097,Rowlands Pharmacy,-2.990284669,53.06311683
2098,Well Pharmacy,-2.263735336,53.06994743
2099,Leominster Pharmacy,-2.740222728,52.2266265
2100,Rowlands Pharmacy,-2.9913509,53.05184237
2101,Murrays Healthcare,-2.070315288,52.44779301
2102,Rowlands Pharmacy,-2.984845855,53.0400483
2103,Murrays Healthcare,-2.052528212,52.44894402
2104,Rowlands Pharmacy,-2.996586301,53.05205212
2105,Longsands Pharmacy,-2.674624898,53.78628064
2106,Superdrug Pharmacy,-2.237687986,53.48183622
2107,Rowlands Pharmacy,-2.995072105,53.04305556
2108,Rowlands Pharmacy,-2.984028619,53.04935017
2109,Rowlands Pharmacy,-3.028353894,53.07682007
2110,Rowlands Pharmacy,-3.040271771,52.98896702
2111,Rowlands Pharmacy,-2.934809299,52.97051395
2112,Gresford Pharmacy,-2.971742265,53.08534774
2113,Tesco in-store Pharmacy,-1.858204917,52.54951885
2114,Rowlands Pharmacy,-3.069585675,53.05304337
2115,Rowlands Pharmacy,-3.07463918,52.97243949
2116,Rowlands Pharmacy,-3.035174265,53.06263217
2117,Rowlands Pharmacy,-2.971634182,53.05940338
2118,Boots,-3.039611681,53.21209747
2119,Boots,-0.275973958,51.61287619
2120,Muirhead Avenue Pharmacy,-2.914105469,53.43769958
2121,Rowlands Pharmacy,-2.928068615,53.40036807
2122,Well Pharmacy,-2.456039143,53.50081944
2123,Boots,-1.513484996,52.40786037
2124,Boots,-0.445850538,53.75740004
2125,Boots,-3.054570303,53.81623106
2126,Boots,-0.388073021,53.73202485
2127,Boots,-0.503509125,53.71909735
2128,Superdrug Pharmacy,-0.430529116,53.84200236
2129,Superdrug Pharmacy,-0.190783976,54.08206
2130,Hingley Pharmacy,-1.851641568,52.48882536
2131,Jhoots Pharmacy,-1.835369642,52.4327045
2132,Lloyds Pharmacy,-3.015627305,51.09263097
2133,Boots,-3.002827949,51.12870192
2134,Lloyds Pharmacy,-2.947313747,50.73028567
